Name,Description,Lat,Lon
M 8.6 Off W Coast Of Northern Sumatra,2012 04 11,2.327,93.063
M 8.2 Off W Coast Of Northern Sumatra,2012 04 11,0.802,92.463
M 7.8 Queen Charlotte Islands Region,2012 10 28,52.788,-132.101
M 7.7 Sea Of Okhotsk,2012 08 14,49.8,145.064
M 7.6 Philippine Islands Region,2012 08 31,10.811,126.638
M 7.6 Costa Rica,2012 09 05,10.085,-85.315
M 7.4 Oaxaca,2012 03 20,16.493,-98.231
M 7.4 Offshore Guatemala,2012 11 07,13.963,-91.854
M 7.3 Off The Coast Of El Salvador,2012 08 27,12.139,-88.59
M 7.3 Colombia,2012 09 30,1.929,-76.362
M 7.3 Off East Coast Of Honshu,2012 12 07,37.89,143.949
M 7.2 Off W Coast Of Northern Sumatra,2012 01 10,2.433,93.21
M 7.1 Vanuatu,2012 02 02,-17.827,167.133
M 7.1 Maule,2012 03 25,-35.2,-72.217
M 7.1 Banda Sea,2012 12 10,-6.533,129.825
M 7 Gulf Of California,2012 04 12,28.696,-113.104
M 6.9 Off East Coast Of Honshu,2012 03 14,40.887,144.944
M 6.8 Izu Islands,2012 01 01,31.456,138.072
M 6.8 Eastern New Guinea Reg.,2012 04 17,-5.462,147.117
M 6.8 Jan Mayen Island Region,2012 08 30,71.441,-10.605
M 6.8 Myanmar,2012 11 11,23.005,95.885
M 6.7 Negros- Cebu Reg,2012 02 06,9.999,123.206
M 6.7 Southwestern Siberia,2012 02 26,51.708,95.991
M 6.7 Vanuatu,2012 03 09,-19.125,169.613
M 6.7 Valparaiso,2012 04 17,-32.625,-71.365
M 6.7 Near N Coast Of Papua,2012 04 21,-1.617,134.276
M 6.7 Santiago Del Estero,2012 05 28,-28.043,-63.094
M 6.7 Mauritius - Reunion Region,2012 07 26,-17.592,66.391
M 6.7 Vanuatu,2012 12 21,-14.331,167.29
M 6.6 South Shetland Islands,2012 01 15,-60.948,-56.113
M 6.6 Southeast Of Loyalty Islands,2012 03 03,-22.141,170.34
M 6.6 New Guinea,2012 03 21,-6.242,145.955
M 6.6 Tonga,2012 04 28,-18.685,-174.705
M 6.6 Molucca Sea,2012 08 26,2.19,126.837
M 6.6 West Of Macquarie Island,2012 10 09,-60.326,153.699
M 6.6 Near S Coast Of Papua,2012 10 12,-4.892,134.03
M 6.5 Michoacan,2012 04 11,18.229,-102.689
M 6.5 New Ireland Region,2012 07 28,-4.651,153.173
M 6.5 Costa Rica,2012 10 24,10.086,-85.298
M 6.5 Offshore Guatemala,2012 11 11,14.129,-92.164
M 6.5 Kuril Islands,2012 11 16,49.28,155.425
M 6.4 Santa Cruz Islands,2012 01 09,-10.617,165.16
M 6.4 Near Coast Of Central Peru,2012 01 30,-14.168,-75.635
M 6.4 Solomon Islands,2012 02 14,-10.39,161.102
M 6.4 Simeulue,2012 07 25,2.707,96.045
M 6.4 Solomon Islands,2012 07 25,-9.694,159.727
M 6.4 Northwestern Iran,2012 08 11,38.329,46.826
M 6.4 Andreanof Islands,2012 09 26,51.592,-178.295
M 6.3 South Of Fiji Islands,2012 01 24,-24.977,178.52
M 6.3 Off Coast Of Aisen,2012 05 18,-44.806,-80.159
M 6.3 Off East Coast Of Honshu,2012 05 20,39.646,143.164
M 6.3 South Of Panama,2012 06 04,5.305,-82.629
M 6.3 South Of Panama,2012 06 04,5.508,-82.563
M 6.3 Near East Coast Of Honshu,2012 06 17,38.919,141.831
M 6.3 Northern Xinjiang,2012 06 29,43.433,84.7
M 6.3 Cook Strait,2012 07 03,-40.023,173.756
M 6.3 Vanuatu,2012 07 06,-14.657,167.34
M 6.3 Sulawesi,2012 08 18,-1.315,120.096
M 6.3 Gulf Of California,2012 09 25,24.666,-110.173
M 6.3 Queen Charlotte Islands Region,2012 10 28,52.674,-132.602
M 6.3 Gulf Of Alaska,2012 11 12,57.792,-142.855
M 6.3 North Island Of New Zealand,2012 12 07,-38.278,176.099
M 6.3 Off W. Coast Of Baja California,2012 12 14,31.213,-119.56
M 6.2 Offshore Chiapas,2012 01 21,14.873,-93.005
M 6.2 New Britain Region,2012 03 14,-5.595,151.042
M 6.2 Drake Passage,2012 04 14,-57.679,-65.308
M 6.2 Vanuatu,2012 04 14,-18.972,168.741
M 6.2 Off W Coast Of Northern Sumatra,2012 04 15,2.581,90.269
M 6.2 East Of South Sandwich Islands,2012 04 17,-59.016,-16.612
M 6.2 Tarapaca,2012 05 14,-17.678,-69.591
M 6.2 Fox Islands,2012 08 10,52.633,-167.421
M 6.2 Northwestern Iran,2012 08 11,38.389,46.745
M 6.2 Xinjiang-xizang Border Region,2012 08 12,35.661,82.518
M 6.2 Near N Coast Of New Guinea,2012 08 19,-4.766,144.57
M 6.2 Kep. Mentawai Region,2012 09 14,-3.319,100.594
M 6.2 Vanuatu,2012 10 20,-13.552,166.564
M 6.2 Queen Charlotte Islands Region,2012 10 30,52.365,-131.902
M 6.2 Off East Coast Of Honshu,2012 12 07,37.914,143.764
M 6.1 Offshore Bio-bio,2012 01 23,-36.409,-73.03
M 6.1 Vanuatu,2012 02 03,-17.378,167.277
M 6.1 Vanuatu,2012 02 05,-18.894,168.917
M 6.1 Vanuatu,2012 02 05,-17.948,167.226
M 6.1 Santiago Del Estero,2012 03 05,-28.246,-63.294
M 6.1 Off East Coast Of Honshu,2012 03 14,40.781,144.761
M 6.1 Papua,2012 03 20,-3.812,140.266
M 6.1 Near East Coast Of Honshu,2012 03 27,39.859,142.017
M 6.1 New Ireland Region,2012 04 06,-4.551,153.457
M 6.1 Norwegian Sea,2012 05 24,72.96,5.683
M 6.1 Off East Coast Of Honshu,2012 06 05,34.943,141.132
M 6.1 Southern Peru,2012 06 07,-15.877,-72.413
M 6.1 Northern Sumatra,2012 06 23,3.009,97.896
M 6.1 Central Peru,2012 08 02,-8.414,-74.259
M 6.1 New Ireland Region,2012 08 02,-4.654,153.275
M 6.1 South Of Java,2012 09 03,-10.708,113.931
M 6.1 Papua,2012 09 08,-3.177,135.109
M 6.1 Off East Coast Of Honshu,2012 10 01,39.808,143.099
M 6.1 Banda Sea,2012 10 08,-4.472,129.129
M 6.1 Mindanao,2012 11 02,9.212,126.158
M 6.1 Vancouver Island,2012 11 08,49.231,-128.477
M 6.1 Off Coast Of Aisen,2012 11 13,-45.761,-77.053
M 6.1 Coquimbo,2012 11 14,-29.118,-71.19
M 6.1 Guerrero,2012 11 15,18.346,-100.382
M 6.1 Vanuatu,2012 12 02,-16.975,167.645
M 6.1 New Ireland Region,2012 12 15,-4.691,153.012
M 6.1 Sulawesi,2012 12 17,-0.708,123.837
M 6 South Shetland Islands,2012 01 15,-60.882,-55.965
M 6 South Sandwich Islands Region,2012 01 22,-56.759,-25.147
M 6 Negros- Cebu Reg,2012 02 06,9.885,123.095
M 6 South Of Fiji Islands,2012 02 26,-24.495,-177.238
M 6 Near East Coast Of Honshu,2012 03 14,35.687,140.695
M 6 Northern East Pacific Rise,2012 03 26,10.071,-104.16
M 6 Oaxaca,2012 04 02,16.395,-98.316
M 6 North Indian Ocean,2012 04 11,1.254,91.735
M 6 Off Coast Of Oregon,2012 04 11,43.584,-127.638
M 6 Gulf Of California,2012 04 12,28.837,-113.027
M 6 Near N Coast Of Papua,2012 04 21,-1.635,134.197
M 6 Kermadec Islands Region,2012 04 23,-28.556,-177.412
M 6 Offshore Chiapas,2012 05 01,14.376,-92.897
M 6 Northern Italy,2012 05 20,44.89,11.23
M 6 Western Indian-antarctic Ridge,2012 05 23,-50.42,139.516
M 6 Bonin Islands,2012 05 26,26.91,140.055
M 6 Maule,2012 06 07,-36.074,-70.57
M 6 Dodecanese Islands,2012 06 10,36.42,28.88
M 6 Near Islands,2012 06 19,53.351,171.619
M 6 Near East Coast Of Kamchatka,2012 06 24,57.601,163.195
M 6 Kuril Islands,2012 07 08,45.497,151.288
M 6 Kuril Islands,2012 07 20,49.407,155.907
M 6 Santa Cruz Islands,2012 09 05,-12.476,166.513
M 6 Celebes Sea,2012 10 17,4.232,124.52
M 6 Central Peru,2012 11 10,-8.866,-75.071
M 6 New Britain Region,2012 11 19,-5.705,151.602
M 6 Molucca Sea,2012 12 11,0.595,126.247
M 6 Near Islands,2012 12 15,52.268,174.038
M 5.9 South Shetland Islands,2012 01 15,-60.975,-56.072
M 5.9 Off W. Coast Of S. Island,2012 01 19,-46.686,165.778
M 5.9 Kermadec Islands,2012 01 28,-29.43,-177.386
M 5.9 Macquarie Island Region,2012 02 09,-58.312,157.837
M 5.9 Fiji Region,2012 02 10,-17.968,-178.549
M 5.9 Costa Rica,2012 02 13,9.183,-84.121
M 5.9 Taiwan,2012 02 26,22.661,120.891
M 5.9 Southern Xinjiang,2012 03 08,39.383,81.307
M 5.9 Samoa Islands Region,2012 03 19,-14.621,-175.702
M 5.9 North Indian Ocean,2012 04 11,2.199,89.441
M 5.9 Off W Coast Of Northern Sumatra,2012 04 20,3.269,93.821
M 5.9 Easter Island Region,2012 05 10,-28.73,-112.587
M 5.9 Off East Coast Of Honshu,2012 05 19,39.665,143.311
M 5.9 Hokkaido,2012 05 23,41.335,142.082
M 5.9 Western Indian-antarctic Ridge,2012 05 23,-50.352,139.536
M 5.9 Tonga,2012 05 28,-19.962,-175.976
M 5.9 Salta,2012 06 02,-22.059,-63.555
M 5.9 Java,2012 06 04,-7.692,106.371
M 5.9 Taiwan Region,2012 06 09,24.572,122.248
M 5.9 Luzon,2012 06 16,15.593,119.563
M 5.9 Pacific-antarctic Ridge,2012 07 18,-55.661,-128.893
M 5.9 Fiji Region,2012 07 18,-20.872,-178.508
M 5.9 Vanuatu Region,2012 07 21,-19.19,173.789
M 5.9 Offshore Guatemala,2012 07 29,14.191,-92.294
M 5.9 Fiji,2012 08 08,-16.02,178.062
M 5.9 Hokkaido,2012 08 25,42.419,142.913
M 5.9 Kuril Islands,2012 09 09,49.247,155.75
M 5.9 South Of Mariana Islands,2012 09 11,11.838,143.218
M 5.9 Gulf Of California,2012 10 08,25.127,-109.574
M 5.9 West Of Macquarie Island,2012 10 18,-54.217,144.006
M 5.9 Izu Islands,2012 10 23,29.057,139.251
M 5.9 Bismarck Sea,2012 11 15,-3.109,148.27
M 5.9 Tonga Region,2012 11 17,-18.381,-172.32
M 5.9 Libertador O'higgins,2012 11 21,-33.939,-71.868
M 5.9 Salta,2012 11 22,-22.742,-63.571
M 5.9 Near N Coast Of New Guinea,2012 11 29,-3.423,145.562
M 5.9 Central East Pacific Rise,2012 12 17,-4.107,-104.416
M 5.9 Offshore Maule,2012 12 27,-35.782,-73.255
M 5.8 Babuyan Isl Region,2012 01 14,19.202,121.156
M 5.8 Molucca Sea,2012 01 18,-0.877,126.829
M 5.8 Tonga,2012 02 04,-20.536,-174.035
M 5.8 Negros- Cebu Reg,2012 02 06,9.821,123.08
M 5.8 Near East Coast Of Honshu,2012 02 14,36.214,141.386
M 5.8 Off Coast Of Oregon,2012 02 15,43.625,-127.518
M 5.8 Mauritius - Reunion Region,2012 02 16,-17.839,65.405
M 5.8 Leyte,2012 03 16,10.037,125.633
M 5.8 Southern East Pacific Rise,2012 03 17,-34.905,-107.644
M 5.8 North Of Ascension Island,2012 04 10,-1.261,-13.972
M 5.8 North Indian Ocean,2012 04 11,1.271,91.748
M 5.8 North Indian Ocean,2012 04 11,1.841,89.685
M 5.8 Sunda Strait,2012 04 14,-6.81,105.457
M 5.8 Sulawesi,2012 04 16,-2.64,121.855
M 5.8 Southern Greece,2012 04 16,36.632,21.475
M 5.8 Off W Coast Of Northern Sumatra,2012 04 20,2.158,93.36
M 5.8 Near East Coast Of Honshu,2012 04 29,35.596,140.349
M 5.8 West Of Macquarie Island,2012 05 02,-54.565,143.836
M 5.8 Antofagasta,2012 05 19,-25.729,-70.562
M 5.8 South Of Fiji Islands,2012 05 29,-22.13,-179.61
M 5.8 Northern Italy,2012 05 29,44.851,11.086
M 5.8 Near N Coast Of Papua,2012 06 01,-0.72,133.269
M 5.8 Fiji Region,2012 06 07,-20.192,-176.34
M 5.8 South Atlantic Ocean,2012 06 29,-24.747,-9.663
M 5.8 Kuril Islands,2012 07 12,45.452,151.665
M 5.8 Kuril Islands,2012 07 20,49.354,156.132
M 5.8 Fiji Region,2012 08 05,-21.15,-178.358
M 5.8 Southeast Of Easter Island,2012 08 16,-36.429,-98.905
M 5.8 Halmahera,2012 08 18,2.645,128.697
M 5.8 Moro Gulf,2012 09 03,6.61,123.875
M 5.8 Solomon Islands,2012 09 27,-8.838,157.456
M 5.8 Solomon Islands,2012 10 14,-7.145,156.048
M 5.8 Southeast Of Loyalty Islands,2012 10 23,-22.312,171.691
M 5.8 Myanmar,2012 11 11,22.72,95.832
M 5.8 Southern Alaska,2012 12 04,61.237,-150.76
M 5.8 Eastern Iran,2012 12 05,33.49,59.554
M 5.8 Fiji Region,2012 12 14,-15.307,-178.186
M 5.7 Kermadec Islands Region,2012 01 07,-28.613,-176.935
M 5.7 Samar,2012 01 17,11.177,125.837
M 5.7 Santa Cruz Islands,2012 01 19,-10.966,165.57
M 5.7 Flores Region,2012 01 20,-8.406,119.701
M 5.7 Vanuatu,2012 02 03,-17.463,167.187
M 5.7 Near N Coast Of Papua,2012 02 10,-0.324,132.691
M 5.7 Southeast Of Loyalty Islands,2012 03 04,-21.529,169.769
M 5.7 Pacific-antarctic Ridge,2012 03 25,-54.576,-135.923
M 5.7 Eastern Honshu,2012 04 01,37.116,140.957
M 5.7 New Ireland Region,2012 04 01,-4.516,153.427
M 5.7 North Indian Ocean,2012 04 11,2.913,89.544
M 5.7 Near East Coast Of Honshu,2012 04 13,36.988,141.152
M 5.7 Off W Coast Of Northern Sumatra,2012 04 20,3.256,93.853
M 5.7 Southern Mid-atlantic Ridge,2012 04 21,-35.229,-16.181
M 5.7 Molucca Sea,2012 04 23,0.374,125.293
M 5.7 Nicobar Islands,2012 04 25,9.011,93.945
M 5.7 Off W Coast Of Northern Sumatra,2012 04 29,2.704,94.509
M 5.7 North Indian Ocean,2012 04 30,1.757,89.598
M 5.7 Guerrero,2012 05 01,18.251,-101.085
M 5.7 Tonga,2012 05 05,-21.477,-174.227
M 5.7 Tajikistan,2012 05 12,38.612,70.354
M 5.7 New Britain Region,2012 05 16,-5.504,149.711
M 5.7 Fiji Region,2012 06 04,-15.279,-177.919
M 5.7 Hindu Kush Region,2012 06 11,36.023,69.351
M 5.7 Mindanao,2012 06 15,5.719,126.354
M 5.7 Solomon Islands,2012 06 17,-8.511,160.356
M 5.7 Macquarie Island Region,2012 06 22,-54.36,158.79
M 5.7 El Salvador,2012 06 27,13.834,-89.967
M 5.7 Near Coast Of Central Peru,2012 07 02,-14.423,-75.598
M 5.7 New Ireland Region,2012 07 07,-4.651,153.296
M 5.7 Kuril Islands,2012 07 11,45.401,151.424
M 5.7 South Of Fiji Islands,2012 07 11,-26.051,-177.362
M 5.7 Hindu Kush Region,2012 07 12,36.527,70.906
M 5.7 Myanmar,2012 07 29,22.935,94.299
M 5.7 Vanuatu Region,2012 08 18,-13.504,172.379
M 5.7 Tonga,2012 08 18,-15.598,-173.042
M 5.7 Kermadec Islands Region,2012 08 24,-27.311,-176.807
M 5.7 Mindanao,2012 09 03,7.905,125.044
M 5.7 Central East Pacific Rise,2012 09 06,-4.6,-105.891
M 5.7 Mariana Islands Region,2012 09 08,21.527,145.923
M 5.7 Costa Rica,2012 09 08,10.082,-85.323
M 5.7 South Of Java,2012 09 15,-10.732,113.865
M 5.7 Fiji Region,2012 09 20,-20.757,-178.513
M 5.7 Kepulauan Batu,2012 10 03,-0.429,97.672
M 5.7 Northern Mid-atlantic Ridge,2012 10 05,17.479,-46.457
M 5.7 Antofagasta,2012 10 08,-21.725,-68.165
M 5.7 Kuril Islands,2012 10 14,48.308,154.428
M 5.7 Molucca Sea,2012 10 29,-0.142,125.185
M 5.7 Java,2012 11 01,-6.762,107.529
M 5.7 Minahasa,2012 11 06,1.374,122.2
M 5.7 Offshore Guatemala,2012 11 07,13.849,-92.156
M 5.7 Negros,2012 11 14,9.982,122.472
M 5.7 Seram,2012 11 27,-2.952,129.219
M 5.7 Tonga,2012 11 30,-18.824,-175.595
M 5.7 Eastern New Guinea Reg.,2012 12 07,-7.646,147
M 5.7 Central East Pacific Rise,2012 12 17,-3.968,-104.038
M 5.7 Black Sea,2012 12 23,42.437,41.083
M 5.7 Bismarck Sea,2012 12 29,-3.492,148.832
M 5.6 Tonga,2012 01 05,-17.691,-173.543
M 5.6 South Sandwich Islands Region,2012 01 13,-60.548,-27.073
M 5.6 South Shetland Islands,2012 01 16,-60.752,-56.095
M 5.6 Coquimbo,2012 01 17,-31.655,-71.499
M 5.6 Near East Coast Of Honshu,2012 01 28,40.177,142.211
M 5.6 Southern East Pacific Rise,2012 01 28,-36.793,-110.517
M 5.6 New Britain Region,2012 02 02,-6.563,149.774
M 5.6 New Britain Region,2012 02 02,-6.586,149.718
M 5.6 Samar,2012 02 04,11.872,125.754
M 5.6 Vancouver Island,2012 02 04,48.887,-127.906
M 5.6 Negros- Cebu Reg,2012 02 06,10.092,123.227
M 5.6 Offshore Bio-bio,2012 02 11,-37.456,-73.884
M 5.6 Northern California,2012 02 13,41.143,-123.79
M 5.6 Offshore Chiapas,2012 02 20,14.276,-92.779
M 5.6 South Of Kermadec Islands,2012 02 26,-32.495,-177.73
M 5.6 Bonin Islands,2012 02 28,28.2,139.391
M 5.6 Near East Coast Of Honshu,2012 02 29,35.2,141.001
M 5.6 Masbate Region,2012 03 05,12.354,123.7
M 5.6 Papua,2012 03 07,-2.814,138.888
M 5.6 Northwestern Kashmir,2012 03 12,36.741,73.152
M 5.6 Off East Coast Of Honshu,2012 03 14,40.755,144.806
M 5.6 Southwest Indian Ridge,2012 03 26,-30.04,60.653
M 5.6 Kuril Islands,2012 04 14,49.38,155.651
M 5.6 Kermadec Islands Region,2012 04 17,-31.894,-177.236
M 5.6 West Of Macquarie Island,2012 04 22,-52.867,140.29
M 5.6 Kuril Islands,2012 04 23,48.397,154.739
M 5.6 Carlsberg Ridge,2012 04 24,5.649,61.511
M 5.6 South Of Tonga,2012 04 24,-24.228,-175.95
M 5.6 Off W Coast Of Northern Sumatra,2012 04 26,2.696,94.459
M 5.6 New Britain Region,2012 04 28,-5.328,152.11
M 5.6 Near East Coast Of Honshu,2012 04 29,39.745,142.037
M 5.6 Offshore Coquimbo,2012 04 30,-29.868,-71.46
M 5.6 Central Peru,2012 05 06,-13.82,-75.801
M 5.6 Azerbaijan,2012 05 07,41.549,46.789
M 5.6 Off East Coast Of Honshu,2012 05 20,39.548,143.248
M 5.6 Bulgaria,2012 05 22,42.645,22.968
M 5.6 Komandorskiye Ostrova Region,2012 05 29,54.368,168.925
M 5.6 Near N Coast Of Papua,2012 05 31,-0.902,133.181
M 5.6 Near Islands,2012 06 19,53.351,171.701
M 5.6 Myanmar-india Border Region,2012 07 01,25.592,94.696
M 5.6 Eastern Mediterranean Sea,2012 07 09,35.604,28.919
M 5.6 Ryukyu Islands,2012 07 09,29.381,130.099
M 5.6 Near N Coast Of Papua,2012 07 16,-1.296,137.053
M 5.6 Hindu Kush Region,2012 07 19,37.248,71.375
M 5.6 Fiji Region,2012 07 20,-21.222,-179.287
M 5.6 East Of North Island,2012 07 21,-37.713,-179.968
M 5.6 Bismarck Sea,2012 07 22,-4.872,149.532
M 5.6 Southeast Of Loyalty Islands,2012 07 26,-21.103,169.509
M 5.6 Primor'ye,2012 07 29,47.379,139.073
M 5.6 Revilla Gigedo Islands Region,2012 08 09,19.946,-109.332
M 5.6 Central Mid-atlantic Ridge,2012 08 16,7.335,-36.768
M 5.6 Off Coast Of Washington,2012 08 19,47.789,-128.619
M 5.6 Southwest Of Sumatra,2012 08 21,-0.172,92.056
M 5.6 South Of Kermadec Islands,2012 08 24,-33.435,-179.533
M 5.6 Pacific-antarctic Ridge,2012 08 26,-65.478,-179.778
M 5.6 Western Indian-antarctic Ridge,2012 08 30,-50.143,114.08
M 5.6 Philippine Islands Region,2012 08 31,10.388,126.719
M 5.6 Papua,2012 09 06,-3.661,140.252
M 5.6 Kuril Islands,2012 09 11,45.335,151.111
M 5.6 Tonga,2012 09 25,-15.517,-173.901
M 5.6 Luzon,2012 10 07,18.543,120.94
M 5.6 Near N Coast Of Papua,2012 10 09,-2.714,139.212
M 5.6 Off East Coast Of Kamchatka,2012 10 15,51.9,159.379
M 5.6 Kuril Islands,2012 10 16,49.618,156.438
M 5.6 North Island Of New Zealand,2012 10 16,-38.639,176.167
M 5.6 Mid-indian Ridge,2012 10 19,-9.289,67.057
M 5.6 West Of Macquarie Island,2012 10 23,-57.512,148.206
M 5.6 Near East Coast Of Honshu,2012 10 25,38.306,141.699
M 5.6 Central Mid-atlantic Ridge,2012 11 03,7.048,-34.073
M 5.6 Off East Coast Of Honshu,2012 11 05,37.791,143.61
M 5.6 Minahasa,2012 11 06,1.357,122.167
M 5.6 Carlsberg Ridge,2012 11 06,9.963,57.203
M 5.6 Eastern New Guinea Reg.,2012 11 07,-8.652,148.034
M 5.6 Tonga,2012 11 13,-21.043,-175.934
M 5.6 New Britain Region,2012 11 14,-5.86,151.341
M 5.6 Pacific-antarctic Ridge,2012 11 16,-53.955,-134.758
M 5.6 Vanuatu,2012 11 17,-14.99,167.46
M 5.6 Northern Peru,2012 11 28,-4.522,-76.101
M 5.6 Banda Sea,2012 11 28,-5.389,131.069
M 5.6 Pacific-antarctic Ridge,2012 12 03,-54.637,-136.157
M 5.6 Near S Coast Of New Guinea,2012 12 08,-7.211,143.973
M 5.6 Mindanao,2012 12 09,6.719,126.184
M 5.6 Kuril Islands,2012 12 17,49.77,155.889
M 5.5 Dominican Republic,2012 01 05,18.325,-70.361
M 5.5 Central East Pacific Rise,2012 01 06,-6.341,-107.312
M 5.5 Near East Coast Of Honshu,2012 01 12,36.994,141.071
M 5.5 South Of Africa,2012 01 12,-52.113,28.152
M 5.5 South Sandwich Islands Region,2012 01 22,-56.655,-24.899
M 5.5 South Sandwich Islands Region,2012 01 24,-56.336,-27.723
M 5.5 Vanuatu,2012 02 02,-17.954,167.179
M 5.5 Owen Fracture Zone Region,2012 02 04,13.046,57.561
M 5.5 South Sandwich Islands Region,2012 02 09,-56.383,-25.816
M 5.5 Molucca Sea,2012 02 11,-0.978,126.853
M 5.5 Near East Coast Of Honshu,2012 02 14,36.193,141.402
M 5.5 Southern Mid-atlantic Ridge,2012 02 23,-17.699,-13.193
M 5.5 South Of Fiji Islands,2012 02 26,-24.477,-177.5
M 5.5 Off Coast Of Central America,2012 03 04,2.687,-84.34
M 5.5 Alaska Peninsula,2012 03 10,55.146,-157.567
M 5.5 Kuril Islands,2012 03 12,45.239,147.609
M 5.5 Offshore Chiapas,2012 03 13,14.959,-93.026
M 5.5 Near S. Coast Of Honshu,2012 03 15,35.802,139.279
M 5.5 Carlsberg Ridge,2012 03 17,3.823,63.404
M 5.5 Pacific-antarctic Ridge,2012 03 24,-54.367,-136.157
M 5.5 Northern East Pacific Rise,2012 03 26,9.995,-104.228
M 5.5 Pacific-antarctic Ridge,2012 03 28,-57.331,-140.014
M 5.5 Kep. Mentawai Region,2012 04 06,-3.345,100.426
M 5.5 Andreanof Islands,2012 04 11,51.364,-176.097
M 5.5 North Indian Ocean,2012 04 11,1.495,90.854
M 5.5 Off W Coast Of Northern Sumatra,2012 04 11,1.19,92.092
M 5.5 Near East Coast Of Honshu,2012 04 12,37.513,141.468
M 5.5 Bonin Islands,2012 04 18,28.689,138.772
M 5.5 Nicobar Islands,2012 04 24,8.868,93.949
M 5.5 Near East Coast Of Honshu,2012 04 24,35.622,140.472
M 5.5 Banda Sea,2012 04 30,-5.689,128.511
M 5.5 Off Coast Of Baja California Sur,2012 05 01,21.951,-108.44
M 5.5 Southeast Of Easter Island,2012 05 02,-35.883,-102.728
M 5.5 Philippine Islands Region,2012 05 09,6.232,127.45
M 5.5 North Of Ascension Island,2012 05 09,-0.966,-13.6
M 5.5 Northern Italy,2012 05 29,44.888,11.008
M 5.5 Antarctica,2012 06 01,-77.08,-148.864
M 5.5 Mid-indian Ridge,2012 06 03,-16.235,67.21
M 5.5 Taiwan Region,2012 06 06,22.357,121.428
M 5.5 Sunda Strait,2012 06 12,-5.677,105.494
M 5.5 South Sandwich Islands Region,2012 06 13,-55.796,-28.394
M 5.5 Molucca Sea,2012 06 14,1.293,126.828
M 5.5 Fiji Region,2012 06 21,-17.963,-178.186
M 5.5 South Of Kermadec Islands,2012 06 22,-32.935,-178.65
M 5.5 Off W Coast Of Northern Sumatra,2012 06 23,2.628,90.509
M 5.5 Sichuan-yunnan Border Reg,2012 06 24,27.767,100.781
M 5.5 Tonga,2012 06 27,-15.222,-173.268
M 5.5 Southeast Of Loyalty Islands,2012 06 30,-22.088,170.992
M 5.5 Solomon Islands,2012 07 03,-10.82,163.331
M 5.5 Seram,2012 07 12,-2.885,129.321
M 5.5 Near East Coast Of Kamchatka,2012 07 16,55.777,161.234
M 5.5 Tonga,2012 07 26,-21.015,-174.491
M 5.5 Kep. Tanimbar Region,2012 08 02,-6.944,131.121
M 5.5 Fiji Region,2012 08 03,-16.919,-176.916
M 5.5 Pacific-antarctic Ridge,2012 08 12,-63.004,-157.718
M 5.5 Offshore El Salvador,2012 08 15,13.148,-89.215
M 5.5 Northern East Pacific Rise,2012 08 17,8.348,-103.003
M 5.5 Balleny Islands Region,2012 08 24,-63.581,171.324
M 5.5 Southern California,2012 08 26,33.024,-115.549
M 5.5 Offshore El Salvador,2012 08 27,12.297,-88.612
M 5.5 Offshore El Salvador,2012 08 28,12.458,-88.654
M 5.5 Near East Coast Of Honshu,2012 08 29,38.425,141.814
M 5.5 Chiapas,2012 09 01,16.229,-92.773
M 5.5 Sichuan-yunnan-guizhou Rg,2012 09 07,27.575,103.983
M 5.5 Rat Islands,2012 09 09,52.78,175.01
M 5.5 Crete,2012 09 12,34.781,24.109
M 5.5 Fiji Region,2012 09 13,-18.621,175.843
M 5.5 Southern Mid-atlantic Ridge,2012 09 14,-39.676,-16.01
M 5.5 New Britain Region,2012 09 17,-5.687,150.119
M 5.5 Tonga,2012 09 22,-20.896,-174.194
M 5.5 Tonga,2012 09 24,-21.212,-174.292
M 5.5 Oaxaca,2012 09 29,16.304,-98.393
M 5.5 Balleny Islands Region,2012 10 02,-64.969,177.83
M 5.5 Off The Coast Of Guatemala,2012 10 05,13.029,-91.5
M 5.5 Gulf Of California,2012 10 05,23.582,-108.512
M 5.5 Valparaiso,2012 10 11,-32.865,-70.31
M 5.5 Azerbaijan,2012 10 14,41.832,46.406
M 5.5 Chiapas,2012 10 14,14.684,-92.289
M 5.5 Guatemala,2012 10 15,14.062,-91.01
M 5.5 Kermadec Islands Region,2012 10 19,-30.809,-176.8
M 5.5 Iceland Region,2012 10 21,66.317,-18.666
M 5.5 Queen Charlotte Islands Region,2012 10 28,52.294,-132.082
M 5.5 Flores Region,2012 10 29,-8.185,123.465
M 5.5 Near East Coast Of Kamchatka,2012 11 02,55.887,162.799
M 5.5 Southeast Of Easter Island,2012 11 06,-35.465,-104.8
M 5.5 Myanmar,2012 11 11,23.132,95.866
M 5.5 Near Islands,2012 11 15,52.496,173.351
M 5.5 Near Coast Of Northern Peru,2012 11 29,-6.588,-81.07
M 5.5 Offshore Guatemala,2012 11 29,13.757,-92.113
M 5.5 Philippine Islands Region,2012 12 06,10.974,126.638
M 5.5 Off East Coast Of Honshu,2012 12 07,37.828,143.607
M 5.5 East Of Severnaya Zemlya,2012 12 13,80.812,121.443
M 5.5 Myanmar,2012 12 22,22.436,94.772
M 5.5 Pacific-antarctic Ridge,2012 12 26,-56.186,-144.483
M 5.5 Sulawesi,2012 12 28,-0.245,122.94
M 5.5 Hindu Kush Region,2012 12 29,35.684,70.589
M 5.4 Halmahera,2012 01 07,1.705,127.475
M 5.4 Eastern New Guinea Reg.,2012 01 07,-5.081,145.214
M 5.4 Central East Pacific Rise,2012 01 17,-4.045,-104.146
M 5.4 Kepulauan Sangihe,2012 01 20,4.795,125.307
M 5.4 Scotia Sea,2012 01 26,-60.582,-51.411
M 5.4 Kermadec Islands,2012 01 28,-29.519,-177.172
M 5.4 Kermadec Islands,2012 01 28,-29.574,-177.259
M 5.4 Southern Sumatra,2012 02 01,-3.676,102.203
M 5.4 Vanuatu,2012 02 03,-17.386,167.232
M 5.4 Central Mongolia,2012 02 04,42.291,105.61
M 5.4 Samar,2012 02 04,11.937,125.719
M 5.4 Near West Coast Of Honshu,2012 02 08,37.858,137.999
M 5.4 Bougainville Region,2012 02 09,-6.987,155.72
M 5.4 Tonga,2012 02 18,-20.957,-173.521
M 5.4 Kepulauan Kai,2012 02 22,-5.173,133.565
M 5.4 Tarapaca,2012 02 26,-18.811,-69.29
M 5.4 Kuril Islands,2012 02 27,46.922,152.74
M 5.4 Ryukyu Islands,2012 02 27,25.557,127.096
M 5.4 Off East Coast Of Honshu,2012 02 28,37.203,144.137
M 5.4 Vanuatu,2012 02 29,-17.647,168.038
M 5.4 Near East Coast Of Honshu,2012 02 29,36.427,140.448
M 5.4 Eastern New Guinea Reg.,2012 03 02,-8.048,146.265
M 5.4 Halmahera,2012 03 05,1.937,128.626
M 5.4 Nicobar Islands,2012 03 06,8.571,93.691
M 5.4 South Sandwich Islands Region,2012 03 07,-57.941,-25.306
M 5.4 Near East Coast Of Honshu,2012 03 09,36.719,140.392
M 5.4 Off East Coast Of Honshu,2012 03 14,40.905,144.848
M 5.4 Molucca Sea,2012 03 19,0.353,125.075
M 5.4 Offshore Chiapas,2012 03 30,14.381,-93.063
M 5.4 Tristan Da Cunha Region,2012 04 01,-35.191,-14.877
M 5.4 Tonga,2012 04 02,-16.935,-173.514
M 5.4 Near Coast Of Northern Peru,2012 04 03,-5.18,-80.583
M 5.4 Kepulauan Kai,2012 04 03,-5.654,133.876
M 5.4 North Indian Ocean,2012 04 11,1.167,91.87
M 5.4 South Sandwich Islands Region,2012 04 11,-56.871,-27.979
M 5.4 Off W Coast Of Northern Sumatra,2012 04 11,0.734,92.855
M 5.4 Off W Coast Of Northern Sumatra,2012 04 11,2.475,92.694
M 5.4 North Indian Ocean,2012 04 11,2.865,89.556
M 5.4 Off W Coast Of Northern Sumatra,2012 04 14,0.244,92.141
M 5.4 Central Peru,2012 04 21,-14.82,-71.481
M 5.4 West Of Macquarie Island,2012 04 22,-52.753,140.329
M 5.4 Volcano Islands,2012 05 01,25.404,141.207
M 5.4 Off Coast Of Baja California Sur,2012 05 03,21.21,-108.779
M 5.4 Assam,2012 05 11,26.175,92.889
M 5.4 Cyprus Region,2012 05 11,34.304,34.142
M 5.4 Neuquen,2012 05 24,-36.912,-70.467
M 5.4 Eastern Kazakhstan,2012 05 30,43.384,78.745
M 5.4 Kuril Islands,2012 06 09,48.851,154.852
M 5.4 Hindu Kush Region,2012 06 11,36.039,69.401
M 5.4 Bismarck Sea,2012 06 15,-3.381,146.309
M 5.4 Minahasa,2012 06 20,0.102,123.426
M 5.4 Solomon Islands,2012 06 20,-8.7,156.998
M 5.4 Jujuy,2012 06 24,-22.445,-66.702
M 5.4 Guatemala,2012 06 26,15.378,-92.049
M 5.4 Atacama,2012 07 01,-28.561,-70.878
M 5.4 South Of Kermadec Islands,2012 07 02,-33.385,-179.342
M 5.4 South Sandwich Islands Region,2012 07 07,-56.203,-27.414
M 5.4 Tonga,2012 07 11,-16.103,-174.678
M 5.4 Near Coast Of Central Peru,2012 07 11,-15.276,-75.288
M 5.4 Kuril Islands,2012 07 14,45.516,151.316
M 5.4 Western Indian-antarctic Ridge,2012 07 14,-49.044,124.64
M 5.4 South Sandwich Islands Region,2012 07 19,-56.038,-27.809
M 5.4 Flores Region,2012 07 20,-8.006,123.682
M 5.4 New Ireland Region,2012 07 22,-4.169,153.375
M 5.4 Mariana Islands Region,2012 07 27,21.671,142.985
M 5.4 Central Mid-atlantic Ridge,2012 07 28,4.548,-32.667
M 5.4 Near N Coast Of New Guinea,2012 08 01,-4.39,144.639
M 5.4 Bougainville Region,2012 08 03,-6.939,155.718
M 5.4 Santa Cruz Islands,2012 08 03,-11.478,165.038
M 5.4 Halmahera,2012 08 06,2.702,128.429
M 5.4 Northeast Of Taiwan,2012 08 08,25.873,124.921
M 5.4 South Sandwich Islands Region,2012 08 09,-59.762,-27.988
M 5.4 Pakistan,2012 08 13,34.849,73.663
M 5.4 Southern California,2012 08 26,33.019,-115.546
M 5.4 Western Indian-antarctic Ridge,2012 08 30,-50.211,114.106
M 5.4 Philippine Islands Region,2012 08 31,10.485,126.887
M 5.4 Philippine Islands Region,2012 09 01,10.449,126.683
M 5.4 Philippine Islands Region,2012 09 01,10.528,126.812
M 5.4 Philippine Islands Region,2012 09 02,11.308,126.652
M 5.4 Philippine Islands Region,2012 09 04,10.46,126.77
M 5.4 South Of Java,2012 09 07,-10.73,113.833
M 5.4 New Britain Region,2012 09 12,-5.022,152.098
M 5.4 South Indian Ocean,2012 09 12,-23.996,82.926
M 5.4 Philippine Islands Region,2012 09 13,10.238,126.938
M 5.4 South Of Java,2012 09 13,-10.768,113.755
M 5.4 Tarapaca,2012 09 21,-19.569,-68.961
M 5.4 Oaxaca,2012 09 22,16.262,-98.281
M 5.4 Tonga,2012 09 25,-21.192,-174.313
M 5.4 East Of The Volcano Islands,2012 09 30,23,146.043
M 5.4 Mindanao,2012 10 03,5.858,126.95
M 5.4 Northern Mid-atlantic Ridge,2012 10 04,17.443,-46.498
M 5.4 Northern Mid-atlantic Ridge,2012 10 05,17.501,-46.453
M 5.4 Azerbaijan,2012 10 07,40.747,48.437
M 5.4 South Sandwich Islands Region,2012 10 10,-60.326,-26.573
M 5.4 Off East Coast Of Honshu,2012 10 14,38.215,144.333
M 5.4 Izu Islands,2012 10 16,31.277,140.222
M 5.4 Tonga,2012 10 17,-19.042,-174.187
M 5.4 Central California,2012 10 21,36.311,-120.856
M 5.4 Offshore El Salvador,2012 10 21,12.562,-88.337
M 5.4 Cayman Islands Region,2012 10 24,17.785,-81.692
M 5.4 Northern Peru,2012 10 25,-5.919,-76.074
M 5.4 New Britain Region,2012 10 27,-6.141,151.532
M 5.4 Queen Charlotte Islands Region,2012 10 28,52.834,-132.667
M 5.4 Nias Region,2012 10 29,0.88,98.381
M 5.4 Minahasa,2012 11 01,1.23,122.105
M 5.4 Southern Peru,2012 11 04,-15.867,-71.882
M 5.4 Northwestern Iran,2012 11 07,38.418,46.62
M 5.4 Southeast Of Easter Island,2012 11 17,-37.209,-95.075
M 5.4 Southeast Of Easter Island,2012 11 17,-37.182,-95.142
M 5.4 Offshore O'higgins,2012 11 20,-33.921,-72.254
M 5.4 South Of Sumbawa,2012 11 21,-11.359,117.931
M 5.4 Central East Pacific Rise,2012 11 26,-9.098,-108.329
M 5.4 Alamagan Reg,2012 11 27,17.684,145.763
M 5.4 Offshore Guatemala,2012 12 03,14.16,-92.372
M 5.4 Fiji Region,2012 12 12,-19.603,-176.231
M 5.4 Molucca Sea,2012 12 20,0.581,126.225
M 5.4 Molucca Sea,2012 12 25,1.108,125.462
M 5.4 Near East Coast Of Honshu,2012 12 29,38.757,142.096
M 5.3 Santa Cruz Islands,2012 01 01,-11.366,166.218
M 5.3 Off Coast Of Aisen,2012 01 05,-45.992,-76.472
M 5.3 Vanuatu,2012 01 08,-17.425,167.887
M 5.3 South Of Africa,2012 01 12,-52.042,28.196
M 5.3 Tonga,2012 01 12,-16.753,-173.59
M 5.3 Molucca Sea,2012 01 16,-0.228,125.475
M 5.3 Offshore Coquimbo,2012 01 17,-31.728,-71.615
M 5.3 Santa Cruz Islands,2012 01 18,-11.018,165.536
M 5.3 Santa Cruz Islands,2012 01 18,-10.999,165.464
M 5.3 Mariana Islands Region,2012 01 26,21.645,142.852
M 5.3 Dodecanese Islands,2012 01 27,36.044,25.064
M 5.3 Catanduanes,2012 01 28,13.386,124.586
M 5.3 Kermadec Islands,2012 01 28,-29.59,-177.139
M 5.3 Papua,2012 01 28,-4.081,140.788
M 5.3 Northern Mid-atlantic Ridge,2012 01 29,16.488,-46.529
M 5.3 Santa Cruz Islands,2012 02 01,-10.802,165.901
M 5.3 Samar,2012 02 01,11.6,125.557
M 5.3 Easter Island Region,2012 02 01,-31.585,-111.525
M 5.3 Vanuatu,2012 02 02,-17.455,167.176
M 5.3 Negros- Cebu Reg,2012 02 06,9.85,123.108
M 5.3 Negros- Cebu Reg,2012 02 07,10.194,123.42
M 5.3 Negros- Cebu Reg,2012 02 08,10.249,123.43
M 5.3 Kermadec Islands,2012 02 08,-29.455,-177.409
M 5.3 Central Mid-atlantic Ridge,2012 02 14,0.859,-29.228
M 5.3 Southeast Indian Ridge,2012 02 17,-42.024,84.932
M 5.3 Bering Strait,2012 02 21,67.744,-167.057
M 5.3 Off W Coast Of Northern Sumatra,2012 02 22,4.99,94.4
M 5.3 Northern Colombia,2012 02 24,6.702,-72.952
M 5.3 Molucca Sea,2012 02 24,1.516,126.34
M 5.3 Near East Coast Of Honshu,2012 03 02,35.16,141.043
M 5.3 Coquimbo,2012 03 03,-30.348,-71.129
M 5.3 State Of Yap,2012 03 06,10.527,140.306
M 5.3 Mindoro,2012 03 08,13.57,120.519
M 5.3 Tarapaca,2012 03 10,-19.738,-69.25
M 5.3 Carlsberg Ridge,2012 03 11,3.077,65.125
M 5.3 Southern Mid-atlantic Ridge,2012 03 11,-41.153,-16.696
M 5.3 Carlsberg Ridge,2012 03 17,3.758,63.465
M 5.3 New Guinea,2012 03 19,-4.36,143.888
M 5.3 Oaxaca,2012 03 20,16.289,-98.172
M 5.3 South Australia,2012 03 23,-26.163,131.955
M 5.3 Chukotka,2012 03 26,66.363,-174.648
M 5.3 East Of North Island,2012 03 26,-35.689,-179.075
M 5.3 Southwest Indian Ridge,2012 03 29,-40.957,44.605
M 5.3 Guerrero,2012 04 01,16.46,-98.54
M 5.3 New Ireland Region,2012 04 03,-4.397,153.442
M 5.3 New Ireland Region,2012 04 04,-3.824,152.173
M 5.3 New Britain Region,2012 04 07,-6.746,149.555
M 5.3 Taiwan Region,2012 04 08,24,122.35
M 5.3 North Indian Ocean,2012 04 11,1.636,91.785
M 5.3 Off W Coast Of Northern Sumatra,2012 04 11,2.521,90.299
M 5.3 Off W Coast Of Northern Sumatra,2012 04 11,2.483,90.351
M 5.3 Off W Coast Of Northern Sumatra,2012 04 11,2.822,92.482
M 5.3 North Indian Ocean,2012 04 11,1.084,91.958
M 5.3 Off W Coast Of Northern Sumatra,2012 04 11,2.164,93.584
M 5.3 North Indian Ocean,2012 04 11,1.477,90.833
M 5.3 North Indian Ocean,2012 04 11,1.276,91.9
M 5.3 Off W Coast Of Northern Sumatra,2012 04 12,3.753,92.746
M 5.3 Sunda Strait,2012 04 14,-6.777,105.444
M 5.3 South Sandwich Islands Region,2012 04 14,-56.845,-25.209
M 5.3 Gulf Of California,2012 04 16,23.952,-108.793
M 5.3 Off W Coast Of Northern Sumatra,2012 04 16,0.798,92.417
M 5.3 Sulawesi,2012 04 16,-2.58,121.939
M 5.3 Near N Coast Of Papua,2012 04 18,-0.501,131.909
M 5.3 Molucca Sea,2012 04 19,1.199,126.434
M 5.3 Nicobar Islands,2012 04 25,8.945,93.906
M 5.3 Kep. Mentawai Region,2012 04 28,-3.338,100.439
M 5.3 New Britain Region,2012 05 03,-5.466,152.085
M 5.3 Azerbaijan,2012 05 07,41.553,46.719
M 5.3 Molucca Sea,2012 05 12,2.241,126.108
M 5.3 South Indian Ocean,2012 05 13,-3.347,89.416
M 5.3 Sulawesi,2012 05 13,-0.115,122.996
M 5.3 Off East Coast Of Honshu,2012 05 20,39.619,143.175
M 5.3 Kuril Islands,2012 05 23,46.66,152.557
M 5.3 Southern Xinjiang,2012 06 01,39.803,75.194
M 5.3 South Sandwich Islands Region,2012 06 03,-60.562,-25.57
M 5.3 Northern Sumatra,2012 06 05,5.482,94.672
M 5.3 Turkey-syria-iraq Border Region,2012 06 14,37.294,42.325
M 5.3 Tonga,2012 06 17,-20.588,-174.311
M 5.3 Mendoza,2012 06 18,-33.009,-68.496
M 5.3 Near N Coast Of Papua,2012 06 20,-0.727,133.281
M 5.3 Vanuatu,2012 06 28,-13.504,166.625
M 5.3 Near S. Coast Of Honshu,2012 07 03,34.934,139.744
M 5.3 Mindanao,2012 07 05,5.126,126.554
M 5.3 North Island Of New Zealand,2012 07 07,-39.068,175.807
M 5.3 Sulawesi,2012 07 09,-0.171,122.791
M 5.3 Solomon Islands,2012 07 11,-8.442,156.275
M 5.3 Southern Sumatra,2012 07 18,-4.381,102.794
M 5.3 Philippine Islands Region,2012 07 18,11.281,126.073
M 5.3 Kuril Islands,2012 07 20,49.506,155.599
M 5.3 Banda Sea,2012 07 21,-5.387,129.266
M 5.3 Tonga,2012 07 22,-21.804,-175.029
M 5.3 Near East Coast Of Honshu,2012 07 29,39.075,142.323
M 5.3 Northern Sumatra,2012 08 04,4.857,96.296
M 5.3 Ryukyu Islands,2012 08 06,29.487,130.603
M 5.3 Lombok Region,2012 08 09,-8.718,116.363
M 5.3 Bonin Islands,2012 08 14,28.718,142.53
M 5.3 Northwestern Iran,2012 08 15,38.41,46.672
M 5.3 Eastern New Guinea Reg.,2012 08 22,-6.047,147.25
M 5.3 Kepulauan Talaud,2012 08 27,3.622,126.698
M 5.3 Off Coast Of Central America,2012 08 28,11.978,-88.706
M 5.3 Off W Coast Of Northern Sumatra,2012 08 28,4.409,92.986
M 5.3 Central Mid-atlantic Ridge,2012 08 31,3.807,-32.155
M 5.3 Philippine Islands Region,2012 08 31,10.562,126.926
M 5.3 Gulf Of Aden,2012 08 31,13.239,50.47
M 5.3 Philippine Islands Region,2012 09 01,10.229,126.45
M 5.3 Philippine Islands Region,2012 09 04,10.423,126.888
M 5.3 Philippine Islands Region,2012 09 04,10.666,126.778
M 5.3 Philippine Islands Region,2012 09 04,10.634,126.827
M 5.3 Philippine Islands Region,2012 09 04,10.501,126.896
M 5.3 Philippine Islands Region,2012 09 05,11.596,126.711
M 5.3 Kepulauan Talaud,2012 09 06,4.499,126.879
M 5.3 Sichuan-yunnan-guizhou Rg,2012 09 07,27.572,104.007
M 5.3 Halmahera,2012 09 07,2.461,128.238
M 5.3 South Of Java,2012 09 11,-10.705,113.832
M 5.3 Samar,2012 09 15,12.556,125.468
M 5.3 South Of Java,2012 09 15,-10.738,113.883
M 5.3 Philippine Islands Region,2012 09 16,10.624,126.723
M 5.3 Kepulauan Batu,2012 09 20,-0.065,98.817
M 5.3 Mindanao,2012 09 20,5.998,126.381
M 5.3 Fiji Region,2012 09 23,-16.93,175.174
M 5.3 South Of Mariana Islands,2012 09 23,11.705,143.25
M 5.3 Antofagasta,2012 09 26,-22.24,-68.387
M 5.3 Nicobar Islands,2012 09 29,6.107,92.78
M 5.3 Mindanao,2012 10 02,8.297,123.287
M 5.3 Southern Sumatra,2012 10 02,-2.917,101.919
M 5.3 New Britain Region,2012 10 03,-6.299,152.718
M 5.3 New Britain Region,2012 10 07,-5.53,151.794
M 5.3 Costa Rica,2012 10 10,10.1,-85.476
M 5.3 Off W Coast Of Northern Sumatra,2012 10 11,1.471,92.585
M 5.3 Near N Coast Of New Guinea,2012 10 13,-2.538,142.326
M 5.3 Vanuatu,2012 10 15,-13.114,165.506
M 5.3 Kyushu,2012 10 16,31.216,130.199
M 5.3 Iceland Region,2012 10 21,66.382,-18.551
M 5.3 Fiji Region,2012 10 25,-19.857,-178.259
M 5.3 Southern Italy,2012 10 25,39.88,16.01
M 5.3 Philippine Islands Region,2012 10 28,10.431,126.635
M 5.3 Queen Charlotte Islands Region,2012 10 28,52.472,-132.374
M 5.3 Flores Sea,2012 11 02,-7.788,121.64
M 5.3 Philippine Islands Region,2012 11 03,10.515,126.93
M 5.3 Kepulauan Sangihe,2012 11 04,4.6,125.076
M 5.3 Bismarck Sea,2012 11 06,-3.836,148.846
M 5.3 South Of Australia,2012 11 09,-42.732,124.723
M 5.3 Bali Sea,2012 11 09,-7.947,117.614
M 5.3 New Britain Region,2012 11 11,-5.45,151.688
M 5.3 Near East Coast Of Honshu,2012 11 16,35.217,140.988
M 5.3 New Britain Region,2012 11 19,-5.785,151.655
M 5.3 Pakistan,2012 11 19,30.538,67.584
M 5.3 Komandorskiye Ostrova Region,2012 11 22,54.099,168.316
M 5.3 Near East Coast Of Honshu,2012 11 23,38.212,141.694
M 5.3 Fiji Region,2012 11 29,-20.721,-177.157
M 5.3 Alaska Peninsula,2012 12 01,58.422,-154.121
M 5.3 Bouvet Island Region,2012 12 06,-54.179,-1.917
M 5.3 Southern Xinjiang,2012 12 07,38.745,88.098
M 5.3 Banda Sea,2012 12 10,-6.485,129.917
M 5.3 Kermadec Islands,2012 12 13,-30.911,-178.39
M 5.3 Offshore El Salvador,2012 12 13,13.071,-89.967
M 5.3 Near East Coast Of Kamchatka,2012 12 24,55.004,161.891
M 5.3 Eastern New Guinea Reg.,2012 12 26,-5.96,147.303
M 5.3 Ascension Island Region,2012 12 26,-10.432,-13.17
M 5.3 Barbados Region,2012 12 27,12.955,-58.053
M 5.3 Tonga,2012 12 27,-18.297,-173.554
M 5.3 Offshore Chiapas,2012 12 30,14.525,-92.927
M 5.2 South Island Of New Zealand,2012 01 01,-43.476,172.881
M 5.2 Northern Sumatra,2012 01 01,4.547,96.419
M 5.2 Guam Region,2012 01 03,12.689,143.737
M 5.2 Kepulauan Barat Daya,2012 01 04,-7.354,128.737
M 5.2 Santa Cruz Islands,2012 01 04,-10.67,166.375
M 5.2 Pacific-antarctic Ridge,2012 01 05,-56.146,-143.95
M 5.2 Fiji Region,2012 01 08,-17.897,-178.541
M 5.2 Southern Iran,2012 01 09,27.034,55.726
M 5.2 Offshore Valparaiso,2012 01 09,-32.573,-71.594
M 5.2 Vanuatu Region,2012 01 10,-16.993,171.404
M 5.2 Tonga Region,2012 01 10,-17.414,-172.779
M 5.2 Banda Sea,2012 01 11,-6.885,123.462
M 5.2 Near East Coast Of Honshu,2012 01 12,38.336,142.461
M 5.2 Queen Charlotte Islands Region,2012 01 13,51.076,-130.72
M 5.2 Off E. Coast Of N. Island,2012 01 15,-36.573,177.217
M 5.2 Minahasa,2012 01 16,0.002,123.09
M 5.2 Molucca Sea,2012 01 18,-0.951,126.898
M 5.2 Off W. Coast Of S. Island,2012 01 19,-46.763,165.604
M 5.2 Off East Coast Of Honshu,2012 01 20,37.75,143.311
M 5.2 Lake Rudolf Region,2012 01 22,3.678,36.091
M 5.2 Eastern Honshu,2012 01 23,37.108,140.965
M 5.2 South Pacific Ocean,2012 01 25,-6.672,-122.202
M 5.2 Near East Coast Of Honshu,2012 01 25,38.19,141.573
M 5.2 Dodecanese Islands,2012 01 26,36.06,25.07
M 5.2 Rota Region,2012 01 26,14.338,145.189
M 5.2 Eastern Honshu,2012 01 27,35.474,138.888
M 5.2 Kermadec Islands,2012 01 28,-29.452,-177.267
M 5.2 Kermadec Islands,2012 01 28,-29.69,-177.175
M 5.2 Mindanao,2012 01 29,5.936,124.727
M 5.2 Simeulue,2012 01 30,2.072,96.647
M 5.2 Vanuatu,2012 02 02,-17.597,167.304
M 5.2 Vanuatu,2012 02 04,-17.086,167.81
M 5.2 Kepulauan Kai,2012 02 05,-5.489,133.949
M 5.2 Kyrgyzstan,2012 02 05,41.437,74.784
M 5.2 Svalbard Region,2012 02 07,76.848,7.323
M 5.2 Near Coast Of Ecuador,2012 02 08,0.658,-79.258
M 5.2 Near N Coast Of Papua,2012 02 10,-0.266,132.794
M 5.2 Off East Coast Of Honshu,2012 02 12,38.529,144.252
M 5.2 Tonga Region,2012 02 13,-18.175,-172.415
M 5.2 Aegean Sea,2012 02 14,40.13,24.09
M 5.2 Fiji Region,2012 02 15,-19.321,-177.378
M 5.2 Eastern New Guinea Reg.,2012 02 15,-7.501,146.958
M 5.2 Western Xizang,2012 02 17,32.388,82.787
M 5.2 Near East Coast Of Honshu,2012 02 19,36.761,140.313
M 5.2 Northern Sumatra,2012 02 20,1.846,99.562
M 5.2 Kuril Islands,2012 02 25,49.186,155.941
M 5.2 Kuril Islands,2012 02 25,49.23,155.982
M 5.2 Southwestern Siberia,2012 02 26,51.687,95.981
M 5.2 South Of Fiji Islands,2012 02 26,-25.159,-176.946
M 5.2 Southwestern Ryukyu Isl.,2012 02 27,23.873,123.355
M 5.2 Central Iran,2012 02 27,31.428,56.778
M 5.2 Near East Coast Of Honshu,2012 02 29,37.305,141.513
M 5.2 Fiji Region,2012 03 04,-17.835,-178.593
M 5.2 Aegean Sea,2012 03 04,40.134,24.059
M 5.2 Southern Sumatra,2012 03 06,-0.836,100.16
M 5.2 Ryukyu Islands,2012 03 07,25.609,127.13
M 5.2 Vanuatu,2012 03 08,-17.895,167.152
M 5.2 South Of Fiji Islands,2012 03 14,-24.412,-176.331
M 5.2 Near East Coast Of Honshu,2012 03 14,35.502,141.612
M 5.2 Kuril Islands,2012 03 16,49.274,156.074
M 5.2 Carlsberg Ridge,2012 03 17,3.705,63.41
M 5.2 Offshore Oaxaca,2012 03 20,15.899,-98.715
M 5.2 South Sandwich Islands Region,2012 03 25,-60.835,-23.863
M 5.2 Near East Coast Of Honshu,2012 03 25,37.692,141.603
M 5.2 Northern East Pacific Rise,2012 03 26,9.581,-104.373
M 5.2 Southern Sumatra,2012 03 28,-4.403,101.235
M 5.2 Bougainville Region,2012 03 30,-6.583,154.659
M 5.2 Northern Sumatra,2012 03 30,4.616,95.115
M 5.2 South Of Fiji Islands,2012 03 31,-23.63,179.299
M 5.2 Tarapaca,2012 04 03,-19.638,-69.093
M 5.2 Banda Sea,2012 04 07,-6.057,130.684
M 5.2 Southern Mid-atlantic Ridge,2012 04 11,-16.856,-14.397
M 5.2 North Indian Ocean,2012 04 11,1.252,91.802
M 5.2 Off W Coast Of Northern Sumatra,2012 04 11,1.107,92.11
M 5.2 Off W Coast Of Northern Sumatra,2012 04 11,2.945,92.2
M 5.2 North Indian Ocean,2012 04 11,0.306,91.662
M 5.2 Near East Coast Of Honshu,2012 04 12,36.865,141.032
M 5.2 Off W Coast Of Northern Sumatra,2012 04 12,2.396,93.401
M 5.2 Oaxaca,2012 04 13,16.236,-98.138
M 5.2 Off W Coast Of Northern Sumatra,2012 04 16,0.176,92.235
M 5.2 Near East Coast Of Honshu,2012 04 19,36.976,141.181
M 5.2 Off W Coast Of Northern Sumatra,2012 04 20,3.249,93.824
M 5.2 Off W Coast Of Northern Sumatra,2012 04 21,3.268,93.723
M 5.2 Southeast Of Loyalty Islands,2012 04 21,-21.825,170.183
M 5.2 Solomon Islands,2012 04 22,-9.192,158.583
M 5.2 Guatemala,2012 04 23,15.766,-89.211
M 5.2 Kepulauan Babar,2012 04 23,-7.22,129.226
M 5.2 Southern Mid-atlantic Ridge,2012 04 25,-12.771,-14.631
M 5.2 Papua,2012 04 29,-3.059,136.109
M 5.2 Andaman Islands,2012 04 30,14.405,93.327
M 5.2 Iran-iraq Border Region,2012 05 03,32.747,47.726
M 5.2 Gansu-nei Mongol Bdr Reg,2012 05 03,40.513,98.525
M 5.2 Western Turkey,2012 05 03,39.175,29.092
M 5.2 Near East Coast Of Honshu,2012 05 10,39.772,142.171
M 5.2 Molucca Sea,2012 05 10,1.38,126.293
M 5.2 South Of Tonga,2012 05 15,-24.568,-175.967
M 5.2 South Of Tonga,2012 05 16,-24.566,-175.965
M 5.2 Ryukyu Islands,2012 05 21,27.197,127.284
M 5.2 Off East Coast Of Honshu,2012 05 21,39.364,143.47
M 5.2 Central Mid-atlantic Ridge,2012 05 23,0.849,-27.607
M 5.2 Kep. Mentawai Region,2012 05 27,-2.82,100.155
M 5.2 Off East Coast Of Honshu,2012 05 29,39.099,144.645
M 5.2 Near East Coast Of Kamchatka,2012 05 30,54.739,161.392
M 5.2 Vanuatu,2012 06 05,-18.114,168.324
M 5.2 Taiwan,2012 06 14,23.699,121.584
M 5.2 Northern Xinjiang,2012 06 14,42.166,84.279
M 5.2 Near S.e. Coast Of Australia,2012 06 19,-38.304,146.2
M 5.2 Off Coast Of Oregon,2012 06 19,43.443,-127.273
M 5.2 Southern Sumatra,2012 06 20,-4.928,103.194
M 5.2 Off East Coast Of Honshu,2012 06 21,39.38,143.364
M 5.2 South Of Kermadec Islands,2012 06 21,-32.829,-178.622
M 5.2 Kamchatka Peninsula,2012 06 26,56.157,160.519
M 5.2 Flores Region,2012 06 27,-8.304,119.938
M 5.2 Tonga,2012 06 27,-15.138,-173.341
M 5.2 Eastern Honshu,2012 06 28,37.165,140.934
M 5.2 Offshore Chiapas,2012 06 29,14.939,-93.062
M 5.2 Bonin Islands,2012 06 30,28.134,143.386
M 5.2 South Sandwich Islands Region,2012 07 08,-56.456,-24.188
M 5.2 Near N Coast Of Papua,2012 07 10,-1.692,134.248
M 5.2 Guatemala,2012 07 12,14.75,-90.938
M 5.2 Santa Cruz Islands,2012 07 12,-10.752,165.977
M 5.2 Kuril Islands,2012 07 14,45.54,151.329
M 5.2 Myanmar-india Border Region,2012 07 14,25.424,94.48
M 5.2 Tonga,2012 07 14,-17.787,-173.13
M 5.2 Kuril Islands,2012 07 15,43.244,146.41
M 5.2 Kermadec Islands Region,2012 07 17,-31.431,-178.991
M 5.2 Offshore Northern California,2012 07 21,40.412,-125.331
M 5.2 Near N Coast Of Papua,2012 07 23,-2.537,135.414
M 5.2 Oaxaca,2012 07 24,16.266,-98.307
M 5.2 Western Iran,2012 07 24,31.705,50.961
M 5.2 Tajikistan,2012 07 26,38.313,74.008
M 5.2 South Of Fiji Islands,2012 07 26,-26.442,-178.61
M 5.2 Southern Sumatra,2012 07 29,-5.997,104.418
M 5.2 Southern Sumatra,2012 07 31,-4.769,103.086
M 5.2 Bougainville Region,2012 08 02,-6.319,154.833
M 5.2 East Of North Island,2012 08 02,-35.56,-179.786
M 5.2 Atacama,2012 08 07,-27.801,-70.803
M 5.2 Alaska Peninsula,2012 08 08,54.881,-161.214
M 5.2 South Sandwich Islands Region,2012 08 08,-55.769,-26.056
M 5.2 Southern Mid-atlantic Ridge,2012 08 09,-33.145,-15.876
M 5.2 West Chile Rise,2012 08 10,-42.814,-83.235
M 5.2 Northern Mid-atlantic Ridge,2012 08 11,52.149,-31.541
M 5.2 South Sandwich Islands Region,2012 08 14,-59.203,-26.108
M 5.2 Reykjanes Ridge,2012 08 15,57.886,-32.646
M 5.2 Central Mid-atlantic Ridge,2012 08 17,-0.353,-18.707
M 5.2 Northern Sumatra,2012 08 19,5.063,94.753
M 5.2 Southern Sumatra,2012 08 21,-4.749,102.995
M 5.2 South Of Fiji Islands,2012 08 22,-24.085,179.107
M 5.2 South Sandwich Islands Region,2012 08 23,-58.895,-25.452
M 5.2 Near East Coast Of Honshu,2012 08 25,36.962,140.969
M 5.2 Gulf Of California,2012 08 27,30.551,-113.89
M 5.2 Northern Sumatra,2012 08 27,2.376,99.031
M 5.2 Andaman Islands,2012 08 27,10.21,92.802
M 5.2 Gulf Of California,2012 08 27,30.545,-113.909
M 5.2 Ceram Sea,2012 08 30,-3.432,131.002
M 5.2 Jan Mayen Island Region,2012 08 30,70.94,-7.936
M 5.2 Philippine Islands Region,2012 08 31,10.372,126.777
M 5.2 Philippine Islands Region,2012 08 31,10.456,126.916
M 5.2 New Britain Region,2012 08 31,-4.95,151.891
M 5.2 Philippine Islands Region,2012 08 31,10.727,126.73
M 5.2 Tonga,2012 09 01,-21.623,-174.552
M 5.2 Svalbard Region,2012 09 02,78.43,6.764
M 5.2 Philippine Islands Region,2012 09 04,10.535,126.701
M 5.2 South Of Java,2012 09 04,-10.771,113.822
M 5.2 South Of Java,2012 09 04,-10.652,113.911
M 5.2 Philippine Islands Region,2012 09 04,10.611,126.712
M 5.2 Southern Iran,2012 09 06,26.942,53.879
M 5.2 Chagos Archipelago Region,2012 09 07,-6.877,72.179
M 5.2 Solomon Islands,2012 09 08,-9.849,160.404
M 5.2 Kuril Islands,2012 09 09,49.427,155.517
M 5.2 Andaman Islands,2012 09 10,10.459,93.616
M 5.2 Philippine Islands Region,2012 09 11,10.709,126.758
M 5.2 Solomon Islands,2012 09 12,-10.11,161.016
M 5.2 Near East Coast Of Honshu,2012 09 13,35.752,140.388
M 5.2 Costa Rica,2012 09 16,10.167,-85.459
M 5.2 Molucca Sea,2012 09 18,1.336,125.849
M 5.2 Southwest Of Sumatra,2012 09 18,-6.169,103.739
M 5.2 South Of Africa,2012 09 25,-53.21,25.583
M 5.2 South Of Fiji Islands,2012 09 25,-25.555,178.327
M 5.2 Hindu Kush Region,2012 09 25,36.277,69.211
M 5.2 Solomon Islands,2012 09 25,-9.748,159.746
M 5.2 Solomon Islands,2012 09 28,-8.93,157.425
M 5.2 Off Coast Of Jalisco,2012 10 01,18.607,-107.164
M 5.2 Off East Coast Of Honshu,2012 10 01,39.74,143.189
M 5.2 Assam,2012 10 02,26.879,92.818
M 5.2 Southern Iran,2012 10 10,29.33,52.49
M 5.2 Near East Coast Of Honshu,2012 10 12,35.764,140.346
M 5.2 Fiji Region,2012 10 15,-20.446,-178.251
M 5.2 South Sandwich Islands Region,2012 10 22,-56.301,-25.59
M 5.2 Carlsberg Ridge,2012 10 27,9.82,57.091
M 5.2 Philippine Islands Region,2012 10 27,10.415,126.812
M 5.2 Queen Charlotte Islands Region,2012 10 28,52.624,-132.49
M 5.2 Kuril Islands,2012 11 01,49.399,155.489
M 5.2 Southwest Indian Ridge,2012 11 05,-28.775,61.983
M 5.2 Molucca Sea,2012 11 05,-0.144,125.236
M 5.2 Western Indian-antarctic Ridge,2012 11 08,-49.699,117.354
M 5.2 Near East Coast Of Honshu,2012 11 09,36.838,141.245
M 5.2 South Sandwich Islands Region,2012 11 09,-56.391,-27.344
M 5.2 Nias Region,2012 11 09,0.886,97.464
M 5.2 Santa Cruz Islands Region,2012 11 11,-10.755,164.828
M 5.2 South Of Fiji Islands,2012 11 12,-24.277,178.919
M 5.2 Tonga,2012 11 14,-20.739,-174.079
M 5.2 Fiji Region,2012 11 14,-14.484,173.738
M 5.2 Taiwan Region,2012 11 20,22.339,121.454
M 5.2 Offshore O'higgins,2012 11 21,-33.916,-71.994
M 5.2 Southern Sumatra,2012 11 22,-4.535,102.826
M 5.2 Papua,2012 11 27,-2.712,138.75
M 5.2 Off East Coast Of Honshu,2012 12 07,37.325,143.93
M 5.2 Off East Coast Of Honshu,2012 12 07,37.739,143.762
M 5.2 Tonga,2012 12 09,-16.236,-174.22
M 5.2 Vanuatu Region,2012 12 11,-19.094,167.624
M 5.2 Offshore Guatemala,2012 12 14,13.923,-91.705
M 5.2 Near East Coast Of Honshu,2012 12 15,37.311,141.205
M 5.2 Guatemala,2012 12 16,14.675,-91.451
M 5.2 Rota Region,2012 12 16,14.185,146.733
M 5.2 Off East Coast Of Honshu,2012 12 18,36.659,142.018
M 5.2 Babuyan Isl Region,2012 12 22,19.123,121.154
M 5.2 Vanuatu,2012 12 23,-13.078,167.106
M 5.2 Turkey-iran Border Region,2012 12 23,38.504,44.845
M 5.2 Kepulauan Talaud,2012 12 23,4.19,126.584
M 5.2 Black Sea,2012 12 25,42.435,40.972
M 5.2 Bio-bio,2012 12 26,-37.277,-73.268
M 5.2 Southern Mid-atlantic Ridge,2012 12 27,-12.362,-14.875
M 5.2 Near East Coast Of Honshu,2012 12 29,37.027,141.167
M 5.2 Scotia Sea,2012 12 30,-60.93,-36.967
M 5.2 Central Peru,2012 12 30,-13.3,-71.54
M 5.2 Balleny Islands Region,2012 12 31,-61.596,154.288
M 5.1 Guam Region,2012 01 01,12.008,143.487
M 5.1 South Island Of New Zealand,2012 01 01,-43.47,172.852
M 5.1 Guam Region,2012 01 01,12.018,143.607
M 5.1 Halmahera,2012 01 01,2.205,128.368
M 5.1 Vanuatu,2012 01 01,-14.381,166.921
M 5.1 Vanuatu,2012 01 04,-14.748,167.44
M 5.1 Southern Sumatra,2012 01 05,-0.935,99.069
M 5.1 Southern Mid-atlantic Ridge,2012 01 06,-14.092,-14.263
M 5.1 Pacific-antarctic Ridge,2012 01 07,-63.697,-166.854
M 5.1 Tonga,2012 01 07,-17.549,-173.318
M 5.1 Tonga,2012 01 09,-15.063,-174.142
M 5.1 Off W Coast Of Northern Sumatra,2012 01 10,2.386,92.937
M 5.1 Northern Iran,2012 01 11,36.328,52.775
M 5.1 South Of Kermadec Islands,2012 01 13,-32.809,-178.566
M 5.1 Simeulue,2012 01 13,2.405,96.273
M 5.1 South Of Kermadec Islands,2012 01 13,-32.882,-178.476
M 5.1 South Island Of New Zealand,2012 01 14,-43.538,172.765
M 5.1 South Shetland Islands,2012 01 15,-61.33,-53.571
M 5.1 Southern Mid-atlantic Ridge,2012 01 15,-15.675,-12.912
M 5.1 South Sandwich Islands Region,2012 01 16,-56.718,-25.045
M 5.1 South Of Kermadec Islands,2012 01 16,-33.33,-178.424
M 5.1 Molucca Sea,2012 01 18,-0.906,126.806
M 5.1 Santa Cruz Islands,2012 01 18,-11.023,165.478
M 5.1 Santa Cruz Islands,2012 01 19,-10.979,165.477
M 5.1 Northeastern Iran,2012 01 19,36.288,58.835
M 5.1 Dominican Republic,2012 01 23,19.542,-70.077
M 5.1 Mindanao,2012 01 24,8.584,126.102
M 5.1 Fox Islands,2012 01 25,52.654,-167.049
M 5.1 Off W. Coast Of S. Island,2012 01 25,-46.68,165.714
M 5.1 New Britain Region,2012 01 25,-5.209,152.136
M 5.1 Near N Coast Of Papua,2012 01 27,-1.452,138.259
M 5.1 Off W Coast Of Northern Sumatra,2012 01 27,2.732,93.018
M 5.1 South Of Lombok,2012 01 27,-10.369,116.013
M 5.1 Babuyan Isl Region,2012 01 28,19.251,121.205
M 5.1 Potosi,2012 01 28,-21.464,-66.436
M 5.1 Simeulue,2012 01 28,2.07,96.678
M 5.1 Kermadec Islands,2012 01 28,-29.428,-177.166
M 5.1 Kyushu,2012 01 29,32.588,131.806
M 5.1 Vanuatu,2012 01 31,-14.255,167.18
M 5.1 Western Indian-antarctic Ridge,2012 02 02,-49.649,126.049
M 5.1 Vanuatu,2012 02 02,-17.754,167.53
M 5.1 Vanuatu,2012 02 02,-17.686,167.32
M 5.1 Vanuatu,2012 02 02,-17.717,167.429
M 5.1 Vanuatu,2012 02 02,-17.395,167.287
M 5.1 Vanuatu,2012 02 02,-17.43,167.209
M 5.1 Vanuatu,2012 02 02,-17.534,167.327
M 5.1 Taiwan Region,2012 02 04,24.699,122.602
M 5.1 Central Mid-atlantic Ridge,2012 02 04,0.922,-26.746
M 5.1 Fiji Region,2012 02 05,-20.423,-177.987
M 5.1 Minahasa,2012 02 08,-0.462,119.951
M 5.1 Off Coast Of Chiapas,2012 02 08,14.682,-94.427
M 5.1 Seram,2012 02 09,-3.252,130.789
M 5.1 Seram,2012 02 09,-3.339,130.694
M 5.1 Crozet Islands Region,2012 02 09,-41.065,44.526
M 5.1 Papua Region,2012 02 09,-1.755,140.72
M 5.1 Northern Xinjiang,2012 02 09,44.742,92.985
M 5.1 Uttaranchal,2012 02 09,30.986,78.282
M 5.1 Macquarie Island Region,2012 02 09,-58.307,158.057
M 5.1 Fiji Region,2012 02 11,-20.991,-176.113
M 5.1 Solomon Islands,2012 02 11,-9.954,160.274
M 5.1 South Of Kermadec Islands,2012 02 13,-32.554,-178.851
M 5.1 Southern East Pacific Rise,2012 02 14,-49.723,-116.529
M 5.1 Near East Coast Of Honshu,2012 02 14,36.16,141.642
M 5.1 Andreanof Islands,2012 02 15,51.763,-177.97
M 5.1 Vanuatu,2012 02 17,-19.367,168.847
M 5.1 New Britain Region,2012 02 18,-5.285,151.415
M 5.1 Tonga Region,2012 02 20,-17.678,-172.96
M 5.1 Vanuatu,2012 02 22,-17.868,167.051
M 5.1 New Britain Region,2012 02 23,-5.197,151.926
M 5.1 Off Coast Of Chiapas,2012 02 23,14.16,-93.37
M 5.1 Kermadec Islands Region,2012 02 23,-29.231,-176.185
M 5.1 Maug Islands Reg,2012 02 25,19.122,145.747
M 5.1 South Of Fiji Islands,2012 02 25,-25.686,179.534
M 5.1 Samar,2012 02 25,11.774,125.782
M 5.1 Southwestern Siberia,2012 02 26,51.693,96.084
M 5.1 South Of Fiji Islands,2012 02 26,-24.869,-177.222
M 5.1 South Of Fiji Islands,2012 02 26,-24.672,-177.205
M 5.1 South Of Fiji Islands,2012 02 26,-24.849,-177.305
M 5.1 South Of Fiji Islands,2012 02 27,-24.757,-177.123
M 5.1 South Of Fiji Islands,2012 02 27,-24.688,-177.229
M 5.1 Kuril Islands,2012 02 28,49.262,156.1
M 5.1 Santa Cruz Islands,2012 02 29,-12.543,166.487
M 5.1 Kuril Islands,2012 02 29,49.259,156.103
M 5.1 Vanuatu,2012 03 01,-17.893,167.45
M 5.1 Rat Islands,2012 03 02,52.228,178.588
M 5.1 Southeast Of Loyalty Islands,2012 03 03,-21.994,170.307
M 5.1 Tonga Region,2012 03 04,-22.309,-174.798
M 5.1 Southern Sumatra,2012 03 04,-4.323,102.706
M 5.1 Southeast Of Loyalty Islands,2012 03 05,-21.591,170.343
M 5.1 Northern Sumatra,2012 03 05,4.197,97.062
M 5.1 Haryana - Delhi Region,2012 03 05,28.809,76.649
M 5.1 Kepulauan Babar,2012 03 05,-7.076,129.212
M 5.1 Vanuatu,2012 03 07,-19.571,168.194
M 5.1 Mindoro,2012 03 08,13.592,120.556
M 5.1 Iran-iraq Border Region,2012 03 08,32.874,46.957
M 5.1 Vanuatu,2012 03 13,-17.599,166.983
M 5.1 Minahasa,2012 03 19,-0.882,119.927
M 5.1 Kamchatka Peninsula,2012 03 19,58.864,164.724
M 5.1 Oaxaca,2012 03 20,16.228,-98.22
M 5.1 Oaxaca,2012 03 20,16.478,-97.987
M 5.1 Tonga Region,2012 03 20,-23.882,-175.753
M 5.1 Kepulauan Sangihe,2012 03 22,3.513,125.859
M 5.1 Oaxaca,2012 03 22,16.334,-98.343
M 5.1 Fiji Region,2012 03 25,-18.638,-178.774
M 5.1 Near East Coast Of Honshu,2012 03 30,37.539,141.244
M 5.1 Off East Coast Of Honshu,2012 03 30,40.764,144.807
M 5.1 Tonga,2012 03 31,-20.326,-175.234
M 5.1 Kep. Mentawai Region,2012 04 06,-3.346,100.452
M 5.1 Off W Coast Of Northern Sumatra,2012 04 11,2.594,90.062
M 5.1 Off W Coast Of Northern Sumatra,2012 04 11,0.604,92.482
M 5.1 Off W Coast Of Northern Sumatra,2012 04 11,2.235,92.493
M 5.1 Off W Coast Of Northern Sumatra,2012 04 11,1.347,92.631
M 5.1 Off W Coast Of Northern Sumatra,2012 04 11,3.163,92.797
M 5.1 Off W Coast Of Northern Sumatra,2012 04 11,2.583,92.626
M 5.1 North Indian Ocean,2012 04 11,2.833,89.933
M 5.1 Off W Coast Of Northern Sumatra,2012 04 11,2.674,90.164
M 5.1 Off W Coast Of Northern Sumatra,2012 04 11,3.368,92.863
M 5.1 Off W Coast Of Northern Sumatra,2012 04 11,0.619,92.496
M 5.1 Off W Coast Of Northern Sumatra,2012 04 12,0.252,92.158
M 5.1 Near East Coast Of Honshu,2012 04 13,37.022,141.151
M 5.1 Off W Coast Of Northern Sumatra,2012 04 14,2.589,90.347
M 5.1 Northern Sumatra,2012 04 17,5.373,94.621
M 5.1 Southeastern Iran,2012 04 18,27.941,58.063
M 5.1 Near N Coast Of Papua,2012 04 18,-0.545,131.893
M 5.1 Iran-iraq Border Region,2012 04 18,32.506,47.004
M 5.1 Iran-iraq Border Region,2012 04 20,32.511,47.023
M 5.1 North Indian Ocean,2012 04 22,1.379,91.745
M 5.1 South Of Tonga,2012 04 23,-24.008,-175.993
M 5.1 North Indian Ocean,2012 04 24,1.154,91.724
M 5.1 Nicobar Islands,2012 04 25,8.826,93.882
M 5.1 Hokkaido,2012 04 26,41.485,141.818
M 5.1 Sulawesi,2012 04 27,-2.662,121.913
M 5.1 Sulawesi,2012 05 01,-2.613,121.906
M 5.1 Kermadec Islands Region,2012 05 01,-30.267,-175.874
M 5.1 South Of Fiji Islands,2012 05 02,-24.331,-176.175
M 5.1 North Indian Ocean,2012 05 04,2.001,89.719
M 5.1 Near East Coast Of Honshu,2012 05 05,38.182,141.628
M 5.1 Izu Islands,2012 05 11,30.669,138.61
M 5.1 Southern Iran,2012 05 14,27.955,57.722
M 5.1 North Indian Ocean,2012 05 15,2.71,89.561
M 5.1 Southern Iran,2012 05 17,26.942,53.851
M 5.1 Azerbaijan,2012 05 18,41.439,46.789
M 5.1 Mariana Islands Region,2012 05 20,17.017,147.257
M 5.1 East Of Kuril Islands,2012 05 20,44.688,151.761
M 5.1 Off East Coast Of Honshu,2012 05 20,39.577,143.197
M 5.1 Near N Coast Of New Guinea,2012 05 20,-3.188,143.917
M 5.1 Off East Coast Of Honshu,2012 05 20,39.556,143.619
M 5.1 Molucca Sea,2012 05 22,2.41,126.619
M 5.1 Rota Region,2012 05 23,14.065,145.413
M 5.1 Loyalty Islands,2012 05 26,-20.796,168.626
M 5.1 North Of Svalbard,2012 05 26,85.939,32.186
M 5.1 Near S. Coast Of Honshu,2012 05 28,35.707,139.95
M 5.1 Northern Italy,2012 05 29,44.873,10.955
M 5.1 Near S. Coast Of Honshu,2012 06 01,35.98,139.642
M 5.1 Northern Italy,2012 06 03,44.9,10.94
M 5.1 Northern Mid-atlantic Ridge,2012 06 05,13.501,-44.854
M 5.1 Southwestern Siberia,2012 06 06,51.706,96.037
M 5.1 Molucca Sea,2012 06 07,1.602,126.477
M 5.1 Ceram Sea,2012 06 09,-2.987,127.671
M 5.1 South Sandwich Islands Region,2012 06 09,-60.577,-26.424
M 5.1 South Sandwich Islands Region,2012 06 10,-55.981,-27.674
M 5.1 Kermadec Islands Region,2012 06 12,-31.696,-178.657
M 5.1 South Of Fiji Islands,2012 06 14,-22.25,179.633
M 5.1 Maug Islands Reg,2012 06 16,20.632,145.401
M 5.1 South Sandwich Islands Region,2012 06 17,-57.124,-26.603
M 5.1 Halmahera,2012 06 18,2.035,129.203
M 5.1 Kep. Mentawai Region,2012 06 19,-2.921,100.99
M 5.1 South Of Kermadec Islands,2012 06 22,-32.979,-178.33
M 5.1 South Sandwich Islands Region,2012 06 24,-60.228,-27.611
M 5.1 South Of Kermadec Islands,2012 06 25,-32.627,-178.051
M 5.1 Volcano Islands,2012 06 27,23.126,143.482
M 5.1 Northeastern Iran,2012 07 01,34.481,59.927
M 5.1 Northern Peru,2012 07 03,-4.035,-76.15
M 5.1 Kermadec Islands,2012 07 04,-30.749,-178.169
M 5.1 Kuril Islands,2012 07 07,45.465,151.232
M 5.1 Dominican Republic,2012 07 07,18.243,-71.136
M 5.1 Myanmar,2012 07 09,25.347,96.529
M 5.1 South Of Fiji Islands,2012 07 10,-25.142,-176.408
M 5.1 Kuril Islands,2012 07 11,45.377,151.435
M 5.1 Galapagos Islands Region,2012 07 11,1.582,-90.855
M 5.1 Fiji Region,2012 07 13,-18.273,-178.551
M 5.1 Southern Peru,2012 07 13,-15.232,-73.172
M 5.1 Southern East Pacific Rise,2012 07 17,-23.496,-115.177
M 5.1 Offshore Tarapaca,2012 07 18,-20.693,-70.365
M 5.1 Kodiak Island Region,2012 07 20,56.595,-153.542
M 5.1 Offshore Northern California,2012 07 21,40.385,-125.528
M 5.1 Myanmar,2012 07 22,24.998,96.427
M 5.1 Hokkaido,2012 07 22,42.552,142.848
M 5.1 Santa Cruz Islands,2012 07 24,-12.042,166.416
M 5.1 East Of North Island,2012 08 01,-35.663,-179.679
M 5.1 East Of North Island,2012 08 02,-37.584,-179.6
M 5.1 Myanmar,2012 08 02,26.103,96.324
M 5.1 Ross Sea,2012 08 03,-76.313,164.067
M 5.1 Southern Mid-atlantic Ridge,2012 08 03,-25.807,-13.831
M 5.1 Southern Sumatra,2012 08 04,-1.758,100.471
M 5.1 East Of North Island,2012 08 04,-35.779,-179.752
M 5.1 Southwest Of Africa,2012 08 06,-52.261,13.771
M 5.1 Nias Region,2012 08 10,1.901,96.965
M 5.1 Southern Xinjiang,2012 08 11,39.963,78.154
M 5.1 Northwestern Iran,2012 08 11,38.482,46.759
M 5.1 Northwestern Iran,2012 08 14,38.45,46.79
M 5.1 Central Mid-atlantic Ridge,2012 08 16,-0.269,-18.759
M 5.1 Near East Coast Of Honshu,2012 08 20,36.927,141.323
M 5.1 Southwest Of Sumatra,2012 08 21,-0.177,92.008
M 5.1 Tonga,2012 08 22,-20.038,-173.661
M 5.1 Offshore El Salvador,2012 08 27,12.76,-88.399
M 5.1 Near Coast Of Nicaragua,2012 08 27,12.172,-88.282
M 5.1 Vanuatu,2012 08 29,-17.61,168.334
M 5.1 Kepulauan Barat Daya,2012 08 30,-7.806,128.647
M 5.1 Philippine Islands Region,2012 08 31,11.026,126.705
M 5.1 South Sandwich Islands Region,2012 08 31,-55.804,-27.493
M 5.1 Philippine Islands Region,2012 08 31,10.977,126.867
M 5.1 Northern Colombia,2012 09 01,6.719,-72.919
M 5.1 Eastern Iran,2012 09 02,33.474,59.897
M 5.1 Philippine Islands Region,2012 09 03,10.338,126.393
M 5.1 Taiwan Region,2012 09 05,24.026,122.341
M 5.1 Gulf Of Aden,2012 09 05,12.084,46.238
M 5.1 Molucca Sea,2012 09 08,2.387,126.691
M 5.1 Kuril Islands,2012 09 09,45.291,151.322
M 5.1 Kepulauan Talaud,2012 09 10,3.999,126.132
M 5.1 San Juan,2012 09 11,-31.875,-68.35
M 5.1 Hindu Kush Region,2012 09 12,36.697,71.442
M 5.1 North Of Severnaya Zemlya,2012 09 13,82.899,116.863
M 5.1 Southern Mid-atlantic Ridge,2012 09 14,-39.644,-16.021
M 5.1 Samar,2012 09 15,12.532,125.524
M 5.1 Kodiak Island Region,2012 09 18,56.937,-154.142
M 5.1 New Britain Region,2012 09 20,-5.691,149.845
M 5.1 Off East Coast Of Honshu,2012 09 20,39.607,143.344
M 5.1 Sakhalin,2012 09 22,46.078,141.915
M 5.1 Mindanao,2012 09 24,5.629,126.54
M 5.1 Tonga,2012 09 26,-21.238,-174.345
M 5.1 La Paz,2012 09 29,-17.182,-69.405
M 5.1 Near East Coast Of Honshu,2012 10 01,36.916,141.028
M 5.1 Tonga,2012 10 02,-21.155,-174.407
M 5.1 Mindoro,2012 10 04,13.249,120.664
M 5.1 Near N Coast Of Papua,2012 10 09,-2.728,139.102
M 5.1 South Sandwich Islands Region,2012 10 11,-56.316,-25.71
M 5.1 Solomon Islands,2012 10 13,-11.106,162.831
M 5.1 Tonga,2012 10 13,-19.963,-173.991
M 5.1 Tonga,2012 10 13,-16.886,-174.479
M 5.1 Kuril Islands,2012 10 14,48.345,154.429
M 5.1 Hindu Kush Region,2012 10 14,36.167,69.216
M 5.1 Solomon Islands,2012 10 14,-10.271,161.415
M 5.1 Off East Coast Of Kamchatka,2012 10 15,51.81,159.519
M 5.1 Flores Region,2012 10 18,-8.059,123.671
M 5.1 Eastern Mediterranean Sea,2012 10 19,32.539,30.979
M 5.1 South Of Fiji Islands,2012 10 19,-21.039,176.649
M 5.1 Offshore El Salvador,2012 10 21,12.59,-88.332
M 5.1 Fed. States Of Micronesia Region,2012 10 22,2.893,147.678
M 5.1 Antofagasta,2012 10 23,-25.767,-70.55
M 5.1 Eastern New Guinea Reg.,2012 10 23,-6.579,147.873
M 5.1 Santa Cruz Islands,2012 10 26,-11.58,165.484
M 5.1 Queen Charlotte Islands Region,2012 10 28,52.735,-132.395
M 5.1 Queen Charlotte Islands Region,2012 10 28,52.243,-132.01
M 5.1 Queen Charlotte Islands Region,2012 10 28,52.647,-132.478
M 5.1 Near N Coast Of Papua,2012 10 29,-0.457,132.789
M 5.1 New Britain Region,2012 10 30,-4.563,151.873
M 5.1 Tonga,2012 10 30,-18.275,-174.714
M 5.1 Andreanof Islands,2012 11 01,51.011,-179.699
M 5.1 Tonga,2012 11 03,-16.662,-173.617
M 5.1 Kepulauan Sangihe,2012 11 05,4.684,125.144
M 5.1 Central East Pacific Rise,2012 11 07,-8.962,-108.73
M 5.1 Offshore Guatemala,2012 11 07,13.967,-92.193
M 5.1 South Indian Ocean,2012 11 08,-36.132,53.497
M 5.1 Vanuatu,2012 11 08,-14.663,167.194
M 5.1 Tonga,2012 11 08,-18.807,-173.33
M 5.1 Java,2012 11 10,-7.373,106.666
M 5.1 Offshore Guatemala,2012 11 10,13.815,-92.224
M 5.1 Kuril Islands,2012 11 11,49.357,155.213
M 5.1 Tonga,2012 11 12,-17.631,-173.09
M 5.1 Off Coast Of Ecuador,2012 11 13,-1.736,-81.577
M 5.1 Queen Charlotte Islands Region,2012 11 13,52.705,-132.033
M 5.1 Southeast Of Loyalty Islands,2012 11 17,-22.278,171.578
M 5.1 Mindanao,2012 11 18,5.979,125.809
M 5.1 East Of South Sandwich Islands,2012 11 19,-59.391,-18.067
M 5.1 New Britain Region,2012 11 19,-5.793,151.625
M 5.1 Offshore O'higgins,2012 11 19,-33.928,-72.17
M 5.1 Offshore O'higgins,2012 11 21,-33.931,-72.1
M 5.1 Luzon,2012 11 23,14.069,120.708
M 5.1 Near East Coast Of Honshu,2012 11 24,38.23,141.702
M 5.1 Philippine Islands Region,2012 11 26,10.438,126.702
M 5.1 Andaman Islands,2012 11 26,13.85,93.637
M 5.1 Kuril Islands,2012 11 27,48.17,154.943
M 5.1 South Sandwich Islands Region,2012 11 27,-56.082,-27.281
M 5.1 Bonin Islands,2012 11 28,27.243,143.194
M 5.1 Fiji Region,2012 11 29,-21.106,-178.772
M 5.1 Off Coast Of Central America,2012 12 02,11.852,-88.988
M 5.1 Tonga,2012 12 02,-20.69,-174.214
M 5.1 Fiji Region,2012 12 05,-20.781,-178.95
M 5.1 Off W Coast Of Northern Sumatra,2012 12 06,2.421,90.434
M 5.1 Off East Coast Of Honshu,2012 12 07,37.813,143.633
M 5.1 Off East Coast Of Honshu,2012 12 07,37.654,143.771
M 5.1 Near S Coast Of New Guinea,2012 12 08,-7.235,144.006
M 5.1 Taiwan Region,2012 12 08,25.748,122.35
M 5.1 Off East Coast Of Honshu,2012 12 09,37.744,143.617
M 5.1 Offshore Guatemala,2012 12 14,13.72,-91.707
M 5.1 New Ireland Region,2012 12 14,-5.259,153.429
M 5.1 New Ireland Region,2012 12 15,-4.893,153.405
M 5.1 Offshore El Salvador,2012 12 18,13.054,-89.978
M 5.1 Northern Sumatra,2012 12 22,5.169,94.221
M 5.1 Kuril Islands,2012 12 22,49.818,155.103
M 5.1 Offshore Atacama,2012 12 24,-29.031,-71.505
M 5.1 Kepulauan Talaud,2012 12 24,4.149,126.68
M 5.1 Southwest Of Sumatra,2012 12 25,-7.893,101.25
M 5.1 Pakistan,2012 12 25,28.391,66.413
M 5.1 Pakistan,2012 12 25,28.402,66.424
M 5.1 South Of Fiji Islands,2012 12 26,-24.228,-178.985
M 5.1 Kermadec Islands Region,2012 12 28,-29.663,-176.31
M 5.1 Komandorskiye Ostrova Region,2012 12 28,55.708,164.727
M 5.1 Near East Coast Of Honshu,2012 12 29,37.065,141.166
M 5.1 Molucca Sea,2012 12 30,1.574,126.69
M 5.1 Guatemala,2012 12 31,15.07,-92.056
M 5 Pacific-antarctic Ridge,2012 01 01,-58.259,-149.214
M 5 Bougainville Region,2012 01 01,-5.413,154.209
M 5 Ryukyu Islands,2012 01 04,27.917,130.221
M 5 Tonga,2012 01 04,-15.552,-174.671
M 5 Tonga,2012 01 04,-15.14,-174.663
M 5 Near East Coast Of Honshu,2012 01 05,38.714,142.197
M 5 Off Coast Of Araucania,2012 01 06,-38.024,-75.091
M 5 Bonin Islands,2012 01 06,26.944,143.559
M 5 Southern Alaska,2012 01 06,59.852,-153.232
M 5 Papua,2012 01 07,-3.752,138.055
M 5 New Britain Region,2012 01 07,-4.329,152.594
M 5 Babuyan Isl Region,2012 01 07,19.254,121.191
M 5 Off East Coast Of Honshu,2012 01 07,36.063,142.073
M 5 Northern Xinjiang,2012 01 08,42.203,87.474
M 5 South Of Fiji Islands,2012 01 08,-23.337,-179.895
M 5 Kermadec Islands Region,2012 01 09,-29.512,-176.09
M 5 Santa Cruz Islands,2012 01 09,-10.516,165.105
M 5 Near N Coast Of Papua,2012 01 09,-0.814,133.064
M 5 Near Coast Of Ecuador,2012 01 10,-0.74,-80.28
M 5 Mindanao,2012 01 12,8.432,125.918
M 5 South Of Africa,2012 01 12,-53.252,23.53
M 5 South Of Africa,2012 01 12,-53.209,23.746
M 5 Tonga Region,2012 01 12,-17.989,-172.393
M 5 Near East Coast Of Honshu,2012 01 12,36.672,141.895
M 5 Tonga Region,2012 01 12,-17.822,-172.531
M 5 Santa Cruz Islands,2012 01 13,-10.52,165.262
M 5 South Sandwich Islands Region,2012 01 13,-60.597,-27.208
M 5 Hindu Kush Region,2012 01 13,36.009,70.512
M 5 South Sandwich Islands Region,2012 01 14,-60.695,-26.086
M 5 South Sandwich Islands Region,2012 01 16,-56.754,-24.981
M 5 North Of Ascension Island,2012 01 16,-2.114,-12.601
M 5 Tonga Region,2012 01 16,-19.289,-172.909
M 5 Mindanao,2012 01 17,6.516,125.972
M 5 San Juan,2012 01 18,-31.767,-68.084
M 5 Dominican Republic Region,2012 01 19,18.058,-68.755
M 5 Tonga Region,2012 01 19,-17.898,-172.416
M 5 Balleny Islands Region,2012 01 21,-65.042,177.584
M 5 Mariana Islands Region,2012 01 21,19.727,147.034
M 5 Atacama,2012 01 22,-28.682,-71.03
M 5 Offshore Bio-bio,2012 01 23,-36.424,-73.486
M 5 Offshore Bio-bio,2012 01 23,-36.338,-73.031
M 5 Near West Coast Of Colombia,2012 01 25,5.519,-77.505
M 5 New Britain Region,2012 01 25,-6.802,153.487
M 5 Kepulauan Babar,2012 01 26,-7.1,129.935
M 5 Off East Coast Of Honshu,2012 01 27,37.904,143.891
M 5 Northern Italy,2012 01 27,44.48,10.03
M 5 Kermadec Islands,2012 01 28,-29.52,-177.077
M 5 Kermadec Islands Region,2012 01 28,-29.505,-176.893
M 5 Kermadec Islands,2012 01 28,-29.554,-177.036
M 5 Northern Mid-atlantic Ridge,2012 01 29,16.624,-46.467
M 5 Kermadec Islands,2012 01 31,-30.699,-177.843
M 5 Samar,2012 02 01,11.61,125.615
M 5 West Of Macquarie Island,2012 02 02,-60.843,153.349
M 5 New Ireland Region,2012 02 02,-5.341,153.638
M 5 Vanuatu,2012 02 02,-17.783,167.248
M 5 Vanuatu,2012 02 02,-17.933,167.126
M 5 Vanuatu,2012 02 02,-17.858,167.413
M 5 Vanuatu,2012 02 02,-17.433,167.108
M 5 Vanuatu,2012 02 02,-17.899,167.198
M 5 Vanuatu,2012 02 02,-18.2,167.648
M 5 Vanuatu,2012 02 02,-17.529,167.327
M 5 Vanuatu,2012 02 02,-18.011,167.791
M 5 New Britain Region,2012 02 03,-6.644,149.939
M 5 Tonga,2012 02 03,-19.49,-174.83
M 5 Near East Coast Of Honshu,2012 02 04,37.343,141.869
M 5 Vanuatu,2012 02 04,-18.026,167.423
M 5 Southern Iran,2012 02 05,28.59,51.488
M 5 Negros- Cebu Reg,2012 02 06,10.019,123.356
M 5 Negros- Cebu Reg,2012 02 07,10.108,123.595
M 5 Hokkaido,2012 02 07,45.559,142.219
M 5 Babuyan Isl Region,2012 02 07,19.684,121.5
M 5 Negros- Cebu Reg,2012 02 08,9.839,123.183
M 5 Vanuatu,2012 02 09,-15.325,167.545
M 5 Negros- Cebu Reg,2012 02 11,10.071,123.264
M 5 Near Coast Of Southern Peru,2012 02 12,-15.64,-74.157
M 5 Ascension Island Region,2012 02 12,-7.074,-13.051
M 5 Mozambique,2012 02 13,-13.928,40.891
M 5 Vanuatu,2012 02 13,-17.552,167.233
M 5 South Of Kermadec Islands,2012 02 13,-33.982,-178.703
M 5 Central Mid-atlantic Ridge,2012 02 14,0.599,-25.357
M 5 Vanuatu,2012 02 14,-18.038,167.153
M 5 Near East Coast Of Honshu,2012 02 15,37.803,141.475
M 5 Nicobar Islands,2012 02 15,6.306,92.9
M 5 New Britain Region,2012 02 16,-5.697,152.193
M 5 Vanuatu,2012 02 17,-14.824,166.829
M 5 Offshore Oaxaca,2012 02 18,15.264,-95.67
M 5 Molucca Sea,2012 02 18,2.446,126.909
M 5 North Island Of New Zealand,2012 02 19,-39.382,174.124
M 5 Crozet Islands Region,2012 02 19,-41.015,44.553
M 5 Fiji Region,2012 02 19,-17.861,-178.639
M 5 Kashmir-xinjiang Border Region,2012 02 20,35.723,79.717
M 5 Kashmir-xinjiang Border Region,2012 02 20,35.84,79.835
M 5 New Britain Region,2012 02 20,-4.792,151.4
M 5 Tonga,2012 02 22,-17.463,-173.294
M 5 Fiji Region,2012 02 23,-20.57,-178.761
M 5 Tonga,2012 02 24,-15.206,-174.264
M 5 Mindanao,2012 02 24,9.958,125.955
M 5 Southern Sumatra,2012 02 24,-4.695,103.103
M 5 South Of Fiji Islands,2012 02 26,-24.739,-177.234
M 5 South Of Fiji Islands,2012 02 26,-24.796,-177.459
M 5 Fiji Region,2012 02 26,-18.036,-178.48
M 5 Bougainville Region,2012 02 27,-6.535,154.871
M 5 South Of Fiji Islands,2012 02 27,-24.734,-177.122
M 5 Kuril Islands,2012 02 27,49.272,155.843
M 5 Ryukyu Islands,2012 02 27,25.511,127.182
M 5 Near East Coast Of Honshu,2012 02 28,36.373,141.023
M 5 Kuril Islands,2012 02 28,49.115,156.127
M 5 Tonga Region,2012 02 28,-22.084,-175.419
M 5 Kuril Islands,2012 02 29,49.282,156.2
M 5 Vanuatu,2012 02 29,-17.794,167.399
M 5 Off East Coast Of Honshu,2012 03 01,37.21,144.154
M 5 Eastern New Guinea Reg.,2012 03 02,-7.956,146.483
M 5 Balleny Islands Region,2012 03 02,-64.822,176.623
M 5 Southern Xinjiang,2012 03 02,39.75,74.38
M 5 Halmahera,2012 03 02,1.809,127.077
M 5 Southeast Of Loyalty Islands,2012 03 03,-22.089,170.341
M 5 South Of Fiji Islands,2012 03 03,-23.934,-177.066
M 5 Offshore Maule,2012 03 03,-35.749,-72.8
M 5 Antofagasta,2012 03 04,-21.554,-69.848
M 5 Near East Coast Of Honshu,2012 03 05,40.167,142.389
M 5 Nicobar Islands,2012 03 06,8.559,93.873
M 5 Off East Coast Of Honshu,2012 03 09,35.642,142.033
M 5 South Of Fiji Islands,2012 03 11,-24.921,-176.949
M 5 Volcano Islands,2012 03 11,23.718,143.579
M 5 Comoros Region,2012 03 13,-10.923,43.286
M 5 South Of Fiji Islands,2012 03 13,-23.734,179.981
M 5 Andaman Islands,2012 03 14,10.535,93.854
M 5 Southeast Of Loyalty Islands,2012 03 16,-22.507,171.119
M 5 New Britain Region,2012 03 19,-4.585,152.963
M 5 Vanuatu,2012 03 20,-19.684,169.33
M 5 Offshore Guerrero,2012 03 20,16.273,-98.694
M 5 Guerrero,2012 03 21,16.511,-98.504
M 5 Vanuatu,2012 03 22,-15.188,167.526
M 5 Tonga,2012 03 22,-21.355,-174.449
M 5 Tonga,2012 03 23,-16.261,-174.263
M 5 Valparaiso,2012 03 24,-33.052,-71.063
M 5 Vanuatu,2012 03 25,-19.108,168.75
M 5 Eastern Turkey,2012 03 26,39.171,42.33
M 5 Northern East Pacific Rise,2012 03 26,10.001,-104.337
M 5 Nepal-india Border Region,2012 03 27,26.087,87.777
M 5 Southeast Of Easter Island,2012 03 30,-35.843,-101.463
M 5 Fiji Region,2012 03 30,-21.177,-178.97
M 5 Off East Coast Of Honshu,2012 04 02,37.937,142.813
M 5 Offshore Guerrero,2012 04 02,16.281,-98.572
M 5 Offshore O'higgins,2012 04 03,-33.847,-72.757
M 5 Kepulauan Barat Daya,2012 04 03,-7.035,125.367
M 5 Tonga,2012 04 06,-21.281,-174.414
M 5 Central Mid-atlantic Ridge,2012 04 07,1.053,-28.091
M 5 Banda Sea,2012 04 11,-6.236,130.261
M 5 North Indian Ocean,2012 04 11,0.916,91.923
M 5 Off W Coast Of Northern Sumatra,2012 04 11,2.668,92.726
M 5 Off W Coast Of Northern Sumatra,2012 04 11,4.601,90.78
M 5 Off W Coast Of Northern Sumatra,2012 04 11,2.539,92.287
M 5 Off W Coast Of Northern Sumatra,2012 04 11,1.269,92.311
M 5 North Indian Ocean,2012 04 12,1.301,91.754
M 5 North Indian Ocean,2012 04 12,1.172,91.717
M 5 Off W Coast Of Northern Sumatra,2012 04 12,1.983,93.9
M 5 Off W Coast Of Northern Sumatra,2012 04 12,3.279,93.746
M 5 Vanuatu,2012 04 13,-18.25,168.086
M 5 North Indian Ocean,2012 04 13,2.653,89.705
M 5 Offshore Oaxaca,2012 04 13,16.207,-98.145
M 5 Off W Coast Of Northern Sumatra,2012 04 14,2.835,94.079
M 5 West Chile Rise,2012 04 14,-36.3,-97.183
M 5 North Island Of New Zealand,2012 04 16,-38.556,175.805
M 5 Mid-indian Ridge,2012 04 16,-36.534,78.876
M 5 Off W Coast Of Northern Sumatra,2012 04 17,2.584,92.61
M 5 Vanuatu,2012 04 18,-13.288,167.052
M 5 Off W Coast Of Northern Sumatra,2012 04 18,3.329,92.541
M 5 Off W Coast Of Northern Sumatra,2012 04 18,3.586,92.766
M 5 Taiwan,2012 04 19,24.13,121.67
M 5 Near N Coast Of Papua,2012 04 19,-1.677,134.492
M 5 Iran-iraq Border Region,2012 04 20,32.453,46.99
M 5 Off W Coast Of Northern Sumatra,2012 04 20,2.564,91.901
M 5 Off W Coast Of Northern Sumatra,2012 04 20,2.025,92.334
M 5 Volcano Islands,2012 04 20,25.447,142.688
M 5 Tonga,2012 04 20,-17.617,-173.594
M 5 Iran-iraq Border Region,2012 04 21,32.407,47.049
M 5 South Sandwich Islands Region,2012 04 23,-55.517,-27.674
M 5 Tonga,2012 04 23,-17.966,-175.17
M 5 South Of Tonga,2012 04 23,-24.007,-175.934
M 5 Tonga Region,2012 04 24,-23.785,-175.999
M 5 New Britain Region,2012 04 25,-4.114,151.694
M 5 Fiji Region,2012 04 26,-18.802,-177.879
M 5 Southwest Indian Ridge,2012 04 28,-40.999,43.501
M 5 South Of Java,2012 04 30,-8.354,105.422
M 5 Kepulauan Talaud,2012 04 30,3.712,127.507
M 5 Kermadec Islands Region,2012 04 30,-30.038,-176.231
M 5 Off W Coast Of Northern Sumatra,2012 04 30,3.314,92.962
M 5 Northern Mid-atlantic Ridge,2012 05 02,23.352,-44.95
M 5 Tonga Region,2012 05 02,-23.551,-175.668
M 5 Kuril Islands,2012 05 03,46.903,150.557
M 5 Vancouver Island,2012 05 04,50.648,-130.241
M 5 Tonga,2012 05 07,-15.169,-173.659
M 5 Off East Coast Of Honshu,2012 05 08,37.364,144.644
M 5 Gansu-qinghai Border Reg,2012 05 11,37.735,102.048
M 5 Andreanof Islands,2012 05 14,51.445,-174.832
M 5 Molucca Sea,2012 05 14,1.29,126.338
M 5 Santa Cruz Islands,2012 05 17,-12.596,166.185
M 5 Off East Coast Of Honshu,2012 05 18,39.646,143.178
M 5 North Of Halmahera,2012 05 19,3.304,128.118
M 5 Fox Islands,2012 05 19,52.068,-171.728
M 5 Off East Coast Of Honshu,2012 05 20,39.543,143.116
M 5 Northern Italy,2012 05 20,44.831,11.49
M 5 Eastern New Guinea Reg.,2012 05 24,-7.33,147.114
M 5 Norwegian Sea,2012 05 25,72.939,5.518
M 5 South Island Of New Zealand,2012 05 25,-43.473,172.81
M 5 South Of Kermadec Islands,2012 05 25,-33.075,-178.46
M 5 Tonga,2012 05 25,-19.184,-173.763
M 5 Southern Sumatra,2012 05 26,-4.9,103.03
M 5 Kermadec Islands,2012 05 26,-30.825,-177.991
M 5 Fiji Region,2012 05 29,-15.524,173.796
M 5 Banda Sea,2012 05 30,-6.199,130.318
M 5 State Of Yap,2012 05 30,11.271,139.559
M 5 Tonga,2012 05 31,-17.683,-174.314
M 5 Potosi,2012 06 03,-21.338,-68.026
M 5 Southeast Of Loyalty Islands,2012 06 04,-21.941,169.134
M 5 Halmahera,2012 06 04,-0.677,127.699
M 5 Molucca Sea,2012 06 06,-0.953,126.905
M 5 Kermadec Islands Region,2012 06 06,-27.034,-177.441
M 5 Tonga Region,2012 06 07,-22.91,-174.717
M 5 Off East Coast Of Honshu,2012 06 07,39.875,143.295
M 5 Maule,2012 06 07,-36.036,-71.075
M 5 Southern Iran,2012 06 08,29.784,50.705
M 5 Off East Coast Of Kamchatka,2012 06 09,51.698,159.206
M 5 South Sandwich Islands Region,2012 06 09,-60.883,-23.239
M 5 Pagan Reg.,2012 06 10,18.689,145.616
M 5 Tonga,2012 06 14,-17.111,-174.161
M 5 Taiwan,2012 06 17,23.647,121.574
M 5 Azores Islands Region,2012 06 18,41.84,-29.151
M 5 North Of Franz Josef Land,2012 06 18,86.386,41.025
M 5 Fiji Region,2012 06 19,-20.552,-178.624
M 5 Gujarat,2012 06 19,23.647,70.252
M 5 Halmahera,2012 06 21,2.7,128.278
M 5 Off East Coast Of Honshu,2012 06 22,39.369,143.492
M 5 Andreanof Islands,2012 06 23,51.242,-177.666
M 5 Kermadec Islands Region,2012 06 25,-27.424,-177.878
M 5 Dodecanese Islands,2012 06 25,36.439,28.941
M 5 Fiji Region,2012 06 26,-21.926,-176.697
M 5 Tonga,2012 06 27,-15.132,-173.408
M 5 New Britain Region,2012 06 29,-4.937,152.342
M 5 Central Iran,2012 07 01,31.841,51.02
M 5 St. Martin Region,2012 07 04,18.12,-62.983
M 5 Izu Islands,2012 07 05,32.284,141.64
M 5 Isla Chiloe,2012 07 06,-42.646,-74.015
M 5 Kep. Mentawai Region,2012 07 07,-3.638,100.591
M 5 Pacific-antarctic Ridge,2012 07 07,-59.52,-150.669
M 5 Mauritius - Reunion Region,2012 07 07,-17.083,66.882
M 5 Alamagan Reg,2012 07 09,17.141,146.017
M 5 Ceram Sea,2012 07 11,-2.02,127.378
M 5 Kuril Islands,2012 07 13,45.255,151.829
M 5 Kuril Islands,2012 07 14,45.378,151.878
M 5 Central Peru,2012 07 15,-13.58,-73.796
M 5 Kermadec Islands Region,2012 07 17,-31.283,-179.093
M 5 Kepulauan Sangihe,2012 07 20,3.395,125.808
M 5 Tonga,2012 07 21,-15.197,-173.39
M 5 Central Turkey,2012 07 22,37.546,36.384
M 5 Near Coast Of Nicaragua,2012 07 22,11.639,-87.028
M 5 Near Islands,2012 07 23,52.016,172.869
M 5 Kermadec Islands,2012 07 23,-30.83,-177.465
M 5 Kuril Islands,2012 07 24,45.464,151.631
M 5 Off E. Coast Of N. Island,2012 07 24,-37.776,179.91
M 5 Kyushu,2012 07 25,30.981,130.348
M 5 Vanuatu Region,2012 07 25,-19.297,167.728
M 5 Solomon Islands,2012 07 25,-9.725,159.699
M 5 North Of Svalbard,2012 07 28,81.294,-3.97
M 5 Southern Xinjiang,2012 08 01,39.774,75.556
M 5 South Shetland Islands,2012 08 02,-61.401,-58.258
M 5 San Juan,2012 08 04,-31.928,-69.358
M 5 Eastern Xizang,2012 08 05,30.352,94.849
M 5 Turkey-syria-iraq Border Region,2012 08 05,37.421,42.965
M 5 Southeast Of Loyalty Islands,2012 08 06,-21.406,170.39
M 5 Ryukyu Islands,2012 08 06,29.495,130.521
M 5 Southwest Of Africa,2012 08 06,-52.29,13.628
M 5 Near Coast Of Nicaragua,2012 08 10,12.075,-88.17
M 5 Northwestern Iran,2012 08 11,38.44,46.78
M 5 Northwestern Iran,2012 08 11,38.436,46.735
M 5 Fiji Region,2012 08 16,-18.46,-177.856
M 5 Bougainville Region,2012 08 17,-6.747,154.53
M 5 Bougainville Region,2012 08 17,-6.792,154.525
M 5 Off W Coast Of Northern Sumatra,2012 08 20,3.318,92.889
M 5 Hokkaido,2012 08 22,42.404,142.86
M 5 Nepal,2012 08 23,28.47,82.69
M 5 Halmahera,2012 08 26,2.626,128.801
M 5 Antofagasta,2012 08 27,-23.739,-69.414
M 5 Molucca Sea,2012 08 27,2.154,126.835
M 5 Virgin Islands Region,2012 08 29,19.652,-64.324
M 5 Offshore Bio-bio,2012 08 30,-37.199,-73.397
M 5 South Sandwich Islands Region,2012 08 31,-55.789,-27.525
M 5 Galapagos Islands Region,2012 08 31,2.526,-95.26
M 5 Philippine Islands Region,2012 09 01,10.351,126.845
M 5 Philippine Islands Region,2012 09 01,10.356,126.881
M 5 Offshore Atacama,2012 09 01,-27.24,-71.114
M 5 New Guinea,2012 09 01,-6.531,143.643
M 5 Moro Gulf,2012 09 03,6.561,123.861
M 5 Andreanof Islands,2012 09 03,51.224,-177.052
M 5 Tonga,2012 09 04,-21.956,-175.067
M 5 South Of Fiji Islands,2012 09 04,-22.003,-179.958
M 5 South Of Java,2012 09 04,-10.839,113.962
M 5 Philippine Islands Region,2012 09 04,10.666,126.772
M 5 Taiwan Region,2012 09 04,22.174,121.135
M 5 Southern Iran,2012 09 06,26.96,53.97
M 5 Philippine Islands Region,2012 09 06,10.946,126.613
M 5 Antofagasta,2012 09 07,-22.351,-68.191
M 5 Philippine Islands Region,2012 09 07,10.55,126.73
M 5 Mariana Islands Region,2012 09 07,21.606,143.322
M 5 South Of Kermadec Islands,2012 09 08,-33.129,-178.875
M 5 Kermadec Islands Region,2012 09 09,-28.091,-176.539
M 5 Kermadec Islands,2012 09 09,-30.404,-177.935
M 5 Yunnan,2012 09 11,24.647,99.267
M 5 South Of Mariana Islands,2012 09 11,11.828,143.353
M 5 Southwest Indian Ridge,2012 09 12,-39.962,46.07
M 5 South Of Bali,2012 09 13,-10.877,114.026
M 5 Northern Xinjiang,2012 09 14,43.637,82.425
M 5 Tonga,2012 09 16,-18.447,-174.657
M 5 Near East Coast Of Honshu,2012 09 17,39.832,142.052
M 5 Vanuatu,2012 09 17,-14.867,167.397
M 5 Kepulauan Talaud,2012 09 18,4.488,126.438
M 5 Loyalty Islands,2012 09 20,-20.296,168.242
M 5 Molucca Sea,2012 09 20,2.185,126.872
M 5 Central Mediterranean Sea,2012 09 21,35.3,22.63
M 5 Solomon Islands,2012 09 21,-9.069,158.013
M 5 Greece,2012 09 22,38.1,22.77
M 5 Off East Coast Of Honshu,2012 09 25,36.114,142.319
M 5 Tonga,2012 09 26,-18.853,-175.399
M 5 South Of Fiji Islands,2012 09 26,-26.04,-177.416
M 5 Mindoro,2012 09 29,13.847,120.723
M 5 South Of Fiji Islands,2012 10 01,-24.745,-179.427
M 5 Tonga,2012 10 02,-18.839,-174.903
M 5 Tonga,2012 10 02,-20.728,-174.157
M 5 New Britain Region,2012 10 03,-5.727,151.197
M 5 Northeast Of Taiwan,2012 10 05,26.271,125.078
M 5 Banda Sea,2012 10 05,-6.661,129.547
M 5 Banda Sea,2012 10 08,-4.478,129.191
M 5 Banda Sea,2012 10 08,-4.511,129.292
M 5 Costa Rica,2012 10 12,9.598,-84.268
M 5 Kuril Islands,2012 10 14,48.38,154.453
M 5 Offshore Coquimbo,2012 10 15,-31.814,-71.787
M 5 Hindu Kush Region,2012 10 15,35.949,69.683
M 5 Tonga,2012 10 17,-15.036,-173.573
M 5 Nias Region,2012 10 17,1.265,97.229
M 5 Madhya Pradesh,2012 10 18,23.769,81.314
M 5 Minahasa,2012 10 25,0.69,124.55
M 5 Taiwan,2012 10 25,22.417,120.558
M 5 Papua,2012 10 25,-3.907,140.348
M 5 Southeast Of Loyalty Islands,2012 10 27,-21.494,169.829
M 5 Andaman Islands,2012 10 28,10.345,92.575
M 5 Queen Charlotte Islands Region,2012 10 28,52.335,-131.36
M 5 Queen Charlotte Islands Region,2012 10 28,52.319,-131.561
M 5 Flores Region,2012 10 29,-8.284,123.571
M 5 Flores Region,2012 10 29,-8.041,123.561
M 5 Queen Charlotte Islands Region,2012 10 29,51.952,-131.182
M 5 Queen Charlotte Islands Region,2012 10 30,52.222,-132.117
M 5 Queen Charlotte Islands Region,2012 11 01,52.55,-132.024
M 5 Banda Sea,2012 11 01,-5.612,129.137
M 5 Fiji Region,2012 11 01,-20.284,-177.638
M 5 Eastern New Guinea Reg.,2012 11 01,-5.28,145.559
M 5 Southeast Of Loyalty Islands,2012 11 04,-22.265,171.388
M 5 Minahasa,2012 11 06,1.281,122.088
M 5 Solomon Islands,2012 11 09,-10.121,161.13
M 5 Flores Region,2012 11 10,-8.887,120.676
M 5 Offshore Guatemala,2012 11 11,13.897,-92.299
M 5 Izu Islands,2012 11 12,29.691,137.994
M 5 Myanmar,2012 11 13,22.895,95.943
M 5 South Of Mariana Islands,2012 11 15,11.668,142.554
M 5 Pacific-antarctic Ridge,2012 11 19,-57.349,-147.523
M 5 Near East Coast Of Honshu,2012 11 21,38.479,141.648
M 5 Bali Region,2012 11 22,-8.918,115.124
M 5 Southeast Of Loyalty Islands,2012 11 22,-22.354,173.923
M 5 Molucca Sea,2012 11 23,1.619,125.824
M 5 Solomon Islands,2012 11 23,-10.789,162.74
M 5 Southern Xinjiang,2012 11 26,40.414,90.354
M 5 Dodecanese Islands,2012 11 26,36.655,27.993
M 5 Northern Algeria,2012 11 28,36.941,5.312
M 5 Mendoza,2012 11 29,-32.91,-69.106
M 5 Northeast Of Taiwan,2012 11 29,26.112,125.191
M 5 Near Islands,2012 11 29,52.635,172.416
M 5 Tonga,2012 12 01,-20.688,-174.38
M 5 Taiwan,2012 12 02,23.91,121.631
M 5 Kuril Islands,2012 12 02,45.701,151.47
M 5 Kermadec Islands Region,2012 12 05,-31.103,-177.523
M 5 Tarapaca,2012 12 06,-17.949,-69.47
M 5 New Britain Region,2012 12 07,-5.293,151.429
M 5 Off East Coast Of Honshu,2012 12 07,37.829,143.738
M 5 Off East Coast Of Honshu,2012 12 07,37.835,143.627
M 5 Off East Coast Of Honshu,2012 12 07,37.869,143.781
M 5 Near S Coast Of New Guinea,2012 12 08,-7.145,144.03
M 5 Near S Coast Of New Guinea,2012 12 08,-7.217,143.978
M 5 New Guinea,2012 12 09,-3.563,141.117
M 5 Off East Coast Of Honshu,2012 12 09,37.519,143.811
M 5 Vanuatu,2012 12 11,-18.987,167.736
M 5 Costa Rica,2012 12 13,9.098,-84.066
M 5 New Britain Region,2012 12 14,-5.015,152.959
M 5 Off The Coast Of El Salvador,2012 12 15,12.264,-88.611
M 5 Off East Coast Of Honshu,2012 12 17,37.728,143.568
M 5 Tonga,2012 12 19,-20.508,-174.283
M 5 Tonga,2012 12 20,-20.773,-174.089
M 5 Near East Coast Of Honshu,2012 12 21,38.633,141.71
M 5 Izu Islands,2012 12 21,29.779,142.212
M 5 West Of Macquarie Island,2012 12 24,-55.683,146.898
M 5 Nias Region,2012 12 26,0.913,98.739
M 5 Bismarck Sea,2012 12 29,-3.361,148.653
M 5 Bismarck Sea,2012 12 29,-3.323,148.783
M 5 Java,2012 12 30,-7.051,105.22
M 5 South Indian Ocean,2012 12 31,-3.237,86.454
M 4.9 Pacific-antarctic Ridge,2012 01 01,-58.305,-149.238
M 4.9 South Of Kermadec Islands,2012 01 01,-33.802,-178.324
M 4.9 Rat Islands,2012 01 02,51.575,178.22
M 4.9 Northern Mid-atlantic Ridge,2012 01 02,16.305,-46.542
M 4.9 Near East Coast Of Honshu,2012 01 02,36.358,141.649
M 4.9 Kuril Islands,2012 01 03,49.389,156.144
M 4.9 Bonin Islands,2012 01 04,26.87,143.698
M 4.9 South Of Sumba,2012 01 04,-11.131,119.053
M 4.9 Near N Coast Of New Guinea,2012 01 04,-4.431,144.409
M 4.9 Santa Cruz Islands,2012 01 04,-10.659,166.28
M 4.9 Pacific-antarctic Ridge,2012 01 04,-62.717,-158.38
M 4.9 Southern Iran,2012 01 05,27.868,52.014
M 4.9 Central East Pacific Rise,2012 01 05,-3.881,-103.132
M 4.9 Atacama,2012 01 05,-26.035,-68.787
M 4.9 Near East Coast Of Honshu,2012 01 05,35.856,140.798
M 4.9 Flores Region,2012 01 07,-8.312,121.518
M 4.9 Santa Cruz Islands,2012 01 07,-10.752,165.706
M 4.9 Bonin Islands,2012 01 08,27.026,143.662
M 4.9 Eastern Honshu,2012 01 08,39.363,141.785
M 4.9 Bonin Islands,2012 01 09,26.95,143.644
M 4.9 Mozambique,2012 01 10,-21.419,33.12
M 4.9 South Sandwich Islands Region,2012 01 10,-57.195,-24.099
M 4.9 Off W Coast Of Northern Sumatra,2012 01 10,2.902,93.156
M 4.9 Off W Coast Of Northern Sumatra,2012 01 10,2.383,93.307
M 4.9 Off East Coast Of Honshu,2012 01 11,39.546,143.25
M 4.9 Off W Coast Of Northern Sumatra,2012 01 11,2.338,93.108
M 4.9 Off W Coast Of Northern Sumatra,2012 01 11,2.616,92.994
M 4.9 Central Peru,2012 01 11,-14.893,-72.67
M 4.9 South Of Africa,2012 01 12,-53.142,23.376
M 4.9 Fox Islands,2012 01 12,52.829,-166.707
M 4.9 Gulf Of Alaska,2012 01 13,57.627,-149.224
M 4.9 New Britain Region,2012 01 13,-6.501,150.313
M 4.9 Off W Coast Of Northern Sumatra,2012 01 13,2.285,93.004
M 4.9 Off East Coast Of Kamchatka,2012 01 14,52.797,159.589
M 4.9 Tonga Region,2012 01 14,-18.099,-172.197
M 4.9 South Sandwich Islands Region,2012 01 15,-60.78,-23.429
M 4.9 North Of Ascension Island,2012 01 15,-0.966,-13.943
M 4.9 Offshore Tarapaca,2012 01 15,-20.26,-70.324
M 4.9 Tonga,2012 01 16,-15.6,-175.708
M 4.9 Mariana Islands Region,2012 01 17,12.214,141.06
M 4.9 Kuril Islands,2012 01 17,43.782,147.519
M 4.9 Offshore Atacama,2012 01 17,-26.362,-71.362
M 4.9 South Shetland Islands,2012 01 17,-60.62,-57.416
M 4.9 Offshore Coquimbo,2012 01 17,-31.717,-71.703
M 4.9 Molucca Sea,2012 01 18,-0.901,126.81
M 4.9 Philippine Islands Region,2012 01 19,11.816,126.063
M 4.9 Offshore Coquimbo,2012 01 19,-31.654,-71.576
M 4.9 Off W. Coast Of S. Island,2012 01 19,-46.914,165.105
M 4.9 South Of Fiji Islands,2012 01 20,-23.305,179.043
M 4.9 Santa Cruz Islands,2012 01 20,-10.983,165.522
M 4.9 South Island Of New Zealand,2012 01 22,-43.485,172.842
M 4.9 Tonga,2012 01 23,-15.312,-173.262
M 4.9 Molucca Sea,2012 01 23,1.826,126.309
M 4.9 Guam Region,2012 01 24,12.594,143.662
M 4.9 West Chile Rise,2012 01 24,-41.36,-86.073
M 4.9 Northern Italy,2012 01 25,44.854,10.538
M 4.9 Tonga,2012 01 25,-18.443,-175.498
M 4.9 Off East Coast Of Honshu,2012 01 26,37.904,144.785
M 4.9 Mariana Islands Region,2012 01 26,21.572,143.057
M 4.9 Mindanao,2012 01 26,6.543,125.765
M 4.9 Simeulue,2012 01 26,2.478,95.912
M 4.9 Near East Coast Of Honshu,2012 01 27,35.716,140.865
M 4.9 Izu Islands,2012 01 27,32.037,141.706
M 4.9 Eastern Honshu,2012 01 27,35.462,138.869
M 4.9 Southwestern Ryukyu Isl.,2012 01 28,24.197,124.241
M 4.9 Near East Coast Of Honshu,2012 01 28,40.251,142.19
M 4.9 Kermadec Islands,2012 01 28,-29.488,-177.139
M 4.9 Kermadec Islands Region,2012 01 28,-31.356,-178.437
M 4.9 Northern Mid-atlantic Ridge,2012 01 29,16.68,-46.45
M 4.9 Seram,2012 01 30,-2.891,129.558
M 4.9 New Britain Region,2012 01 31,-5.666,148.425
M 4.9 New Britain Region,2012 01 31,-6.238,149.824
M 4.9 Pagan Reg.,2012 02 01,18.923,145.425
M 4.9 Kuril Islands,2012 02 01,46.411,152.461
M 4.9 Near Coast Of Southern Peru,2012 02 02,-16.186,-73.526
M 4.9 New Britain Region,2012 02 02,-6.868,150.112
M 4.9 Sumba Region,2012 02 02,-9.835,120.454
M 4.9 Vanuatu,2012 02 02,-17.668,167.151
M 4.9 Vanuatu,2012 02 02,-17.878,167.194
M 4.9 Vanuatu,2012 02 02,-17.515,167.447
M 4.9 Vanuatu,2012 02 02,-17.14,168.126
M 4.9 Vanuatu,2012 02 02,-17.741,167.222
M 4.9 Vanuatu,2012 02 02,-17.638,167.232
M 4.9 Vanuatu,2012 02 02,-17.707,167.442
M 4.9 Vanuatu,2012 02 02,-17.58,167.244
M 4.9 Near N Coast Of New Guinea,2012 02 03,-3.611,144.456
M 4.9 Vanuatu,2012 02 03,-17.877,167.718
M 4.9 Vanuatu,2012 02 03,-17.77,167.792
M 4.9 Southern Sumatra,2012 02 03,-0.397,99.161
M 4.9 North Atlantic Ocean,2012 02 03,18.391,-27.256
M 4.9 Samar,2012 02 04,12.015,125.766
M 4.9 Vanuatu,2012 02 04,-18.056,167.405
M 4.9 Vanuatu,2012 02 05,-17.455,167.185
M 4.9 Vanuatu,2012 02 05,-17.42,167.207
M 4.9 Offshore Chiapas,2012 02 05,14.49,-93.346
M 4.9 Vanuatu,2012 02 05,-18.068,167.396
M 4.9 Gulf Of Aden,2012 02 07,12.737,48.711
M 4.9 Off Coast Of Bio-bio,2012 02 07,-37.902,-74.974
M 4.9 Negros- Cebu Reg,2012 02 07,10.164,123.38
M 4.9 Negros- Cebu Reg,2012 02 07,10.075,123.427
M 4.9 Near Islands,2012 02 08,51.104,174.861
M 4.9 Southern Mid-atlantic Ridge,2012 02 08,-31.109,-13.39
M 4.9 South Of Kermadec Islands,2012 02 09,-34.209,179.46
M 4.9 Tonga,2012 02 09,-15.343,-173.403
M 4.9 Solomon Islands,2012 02 09,-10.763,162.655
M 4.9 Coquimbo,2012 02 10,-30.791,-71.304
M 4.9 Fox Islands,2012 02 10,51.815,-171.299
M 4.9 Kermadec Islands,2012 02 10,-30.124,-177.269
M 4.9 Chagos Archipelago Region,2012 02 11,-3.401,68.257
M 4.9 Near East Coast Of Honshu,2012 02 11,38.692,142.054
M 4.9 South Sandwich Islands Region,2012 02 12,-58.316,-25.732
M 4.9 Near East Coast Of Honshu,2012 02 14,36.581,141.365
M 4.9 Baja California,2012 02 14,32.106,-115.201
M 4.9 Off East Coast Of Honshu,2012 02 14,39.207,144.499
M 4.9 South Of Kermadec Islands,2012 02 15,-33.975,-178.868
M 4.9 Offshore Chiapas,2012 02 16,14.614,-92.4
M 4.9 Komandorskiye Ostrova Region,2012 02 17,54.593,168.864
M 4.9 Offshore Coquimbo,2012 02 18,-32.097,-71.771
M 4.9 Tonga,2012 02 18,-19.716,-174.369
M 4.9 Kyrgyzstan,2012 02 20,41.474,73.027
M 4.9 Tonga,2012 02 21,-16.185,-174.048
M 4.9 New Ireland Region,2012 02 21,-3.388,152.09
M 4.9 New Britain Region,2012 02 23,-5.346,151.572
M 4.9 South Of Fiji Islands,2012 02 24,-26.065,-177.658
M 4.9 Izu Islands,2012 02 24,32.036,142.423
M 4.9 Mariana Islands Region,2012 02 24,19.062,146.074
M 4.9 Kuril Islands,2012 02 25,49.157,156.152
M 4.9 South Of Fiji Islands,2012 02 26,-24.654,-177.068
M 4.9 Southwestern Siberia,2012 02 26,52.112,95.69
M 4.9 Southwestern Siberia,2012 02 26,51.785,95.9
M 4.9 Halmahera,2012 02 26,2.493,128.6
M 4.9 South Of Fiji Islands,2012 02 26,-24.513,-177.289
M 4.9 Vanuatu Region,2012 02 26,-19.287,167.793
M 4.9 Southwest Of Africa,2012 02 27,-52.921,10.361
M 4.9 Southern Mid-atlantic Ridge,2012 02 27,-34.739,-16.168
M 4.9 South Of Fiji Islands,2012 02 27,-24.936,-177.258
M 4.9 Southwestern Ryukyu Isl.,2012 02 27,23.918,123.382
M 4.9 Ryukyu Islands,2012 02 27,25.841,127.044
M 4.9 Fiji Region,2012 02 27,-20.388,-178.692
M 4.9 Vanuatu,2012 02 28,-15.742,168.421
M 4.9 Off East Coast Of Honshu,2012 02 28,36.321,142.118
M 4.9 Kermadec Islands,2012 02 28,-29.834,-177.711
M 4.9 Iran-iraq Border Region,2012 02 29,32.457,46.93
M 4.9 Tonga,2012 02 29,-15.159,-173.581
M 4.9 Kuril Islands,2012 03 01,49.084,156.075
M 4.9 Southwestern Siberia,2012 03 01,51.826,95.345
M 4.9 Scotia Sea,2012 03 02,-60.704,-41.734
M 4.9 Eastern New Guinea Reg.,2012 03 02,-8.015,146.349
M 4.9 Nicobar Islands,2012 03 02,7.254,94.036
M 4.9 Near East Coast Of Honshu,2012 03 02,37.334,141.343
M 4.9 Kermadec Islands Region,2012 03 03,-29.341,-176.636
M 4.9 Offshore Maule,2012 03 03,-35.74,-72.975
M 4.9 Southeast Of Loyalty Islands,2012 03 04,-21.961,170.333
M 4.9 Tonga Region,2012 03 04,-19.788,-172.562
M 4.9 Near East Coast Of Honshu,2012 03 06,35.698,141.778
M 4.9 South Of Fiji Islands,2012 03 06,-26.653,-177.191
M 4.9 Kuril Islands,2012 03 06,47.11,154.318
M 4.9 Tonga,2012 03 06,-18.131,-174.129
M 4.9 Tonga,2012 03 07,-19.283,-175.795
M 4.9 Kermadec Islands Region,2012 03 07,-31.12,-177.754
M 4.9 Southeast Of Loyalty Islands,2012 03 07,-22.135,169.901
M 4.9 Off East Coast Of Honshu,2012 03 09,36.751,142.105
M 4.9 Vanuatu,2012 03 09,-19.054,169.348
M 4.9 Vanuatu,2012 03 09,-19.124,169.843
M 4.9 South Of Fiji Islands,2012 03 09,-23.448,-178.842
M 4.9 East Of Kuril Islands,2012 03 10,43.159,148.037
M 4.9 South Sandwich Islands Region,2012 03 10,-56.17,-26.954
M 4.9 Off East Coast Of Honshu,2012 03 10,39.665,144.153
M 4.9 Andreanof Islands,2012 03 11,51.706,-173.345
M 4.9 Molucca Sea,2012 03 12,2.937,127.042
M 4.9 Maule,2012 03 12,-34.969,-71.664
M 4.9 Southeast Of Galapagos Islands,2012 03 12,-11.862,-90.794
M 4.9 North Island Of New Zealand,2012 03 13,-38.6,176.475
M 4.9 South Sandwich Islands Region,2012 03 13,-56.026,-27.709
M 4.9 Vanuatu,2012 03 13,-13.084,166.972
M 4.9 Off W Coast Of Northern Sumatra,2012 03 14,2.353,93.164
M 4.9 Solomon Islands,2012 03 14,-10.253,161.108
M 4.9 Reykjanes Ridge,2012 03 14,54.336,-35.123
M 4.9 South Sandwich Islands Region,2012 03 14,-59.681,-26.395
M 4.9 Off East Coast Of Honshu,2012 03 14,40.829,145.007
M 4.9 Off East Coast Of Honshu,2012 03 14,40.928,144.8
M 4.9 Andaman Islands,2012 03 14,10.679,94.004
M 4.9 Off East Coast Of Honshu,2012 03 14,40.82,144.771
M 4.9 Fiji Region,2012 03 15,-20.774,-178.468
M 4.9 Vanuatu,2012 03 16,-17.523,167.523
M 4.9 Volcano Islands,2012 03 16,23.902,141.889
M 4.9 Pacific-antarctic Ridge,2012 03 16,-55.127,-128.987
M 4.9 Sea Of Japan,2012 03 16,37.786,133.498
M 4.9 Vanuatu,2012 03 16,-19.556,169.768
M 4.9 South Sandwich Islands Region,2012 03 16,-56.532,-24.747
M 4.9 Banda Sea,2012 03 17,-7.021,123.422
M 4.9 South Of Fiji Islands,2012 03 17,-23.178,179.844
M 4.9 Carlsberg Ridge,2012 03 17,3.781,63.513
M 4.9 Carlsberg Ridge,2012 03 17,3.723,63.377
M 4.9 Near East Coast Of Honshu,2012 03 18,39.128,142.159
M 4.9 Samoa Islands Region,2012 03 18,-16.81,-172.863
M 4.9 North Of Ascension Island,2012 03 18,0.113,-16.234
M 4.9 Near East Coast Of Honshu,2012 03 18,35.65,140.963
M 4.9 Vanuatu,2012 03 18,-17.592,167.679
M 4.9 Hokkaido,2012 03 19,41.521,141.951
M 4.9 Nicobar Islands,2012 03 20,9.481,93.423
M 4.9 Near East Coast Of Kamchatka,2012 03 20,54.939,162.647
M 4.9 South Sandwich Islands Region,2012 03 20,-60.641,-26.084
M 4.9 Vanuatu,2012 03 20,-17.71,167.329
M 4.9 Oaxaca,2012 03 20,16.051,-97.792
M 4.9 Oaxaca,2012 03 20,16.302,-98.069
M 4.9 Kalimantan,2012 03 20,2.054,117.885
M 4.9 Offshore Oaxaca,2012 03 21,15.85,-98.67
M 4.9 Off East Coast Of Honshu,2012 03 21,36.741,142.299
M 4.9 Kepulauan Barat Daya,2012 03 21,-7.76,127.249
M 4.9 Vanuatu,2012 03 21,-14.459,166.986
M 4.9 Pagan Reg.,2012 03 22,18.486,145.713
M 4.9 Kermadec Islands Region,2012 03 22,-27.791,-178.292
M 4.9 Vanuatu,2012 03 23,-17.678,167.546
M 4.9 Iran-iraq Border Region,2012 03 24,32.554,46.978
M 4.9 Izu Islands,2012 03 24,30.699,142.855
M 4.9 Kuril Islands,2012 03 25,47.705,153.658
M 4.9 Southeastern Iran,2012 03 26,27.721,58.834
M 4.9 Off Coast Of Aisen,2012 03 26,-44.527,-78.652
M 4.9 Guam Region,2012 03 26,12.542,144.887
M 4.9 Banda Sea,2012 03 26,-4.13,130.27
M 4.9 Southeast Of Loyalty Islands,2012 03 27,-22.151,170.506
M 4.9 New Ireland Region,2012 03 27,-5.076,153.533
M 4.9 Near East Coast Of Honshu,2012 03 28,39.725,142.321
M 4.9 Tonga Region,2012 03 29,-18.135,-172.542
M 4.9 South Of Fiji Islands,2012 03 29,-23.769,-177.433
M 4.9 Tonga Region,2012 03 29,-17.549,-172.831
M 4.9 Vanuatu,2012 03 30,-14.799,167.434
M 4.9 Greenland Sea,2012 03 30,79.938,1.027
M 4.9 Tonga,2012 03 30,-21.279,-174.568
M 4.9 North Island Of New Zealand,2012 03 30,-40.931,175.416
M 4.9 Ryukyu Islands,2012 03 30,24.34,126.505
M 4.9 South Sandwich Islands Region,2012 03 30,-54.818,-29.064
M 4.9 Hindu Kush Region,2012 03 31,36.496,71.287
M 4.9 Northern Sumatra,2012 03 31,5.411,94.567
M 4.9 Vanuatu,2012 03 31,-18.326,168.152
M 4.9 Guam Region,2012 03 31,12.246,144.113
M 4.9 Guam Region,2012 03 31,12.344,144.127
M 4.9 Antofagasta,2012 04 01,-23.045,-69.025
M 4.9 Tonga,2012 04 01,-19.988,-174.049
M 4.9 Coquimbo,2012 04 01,-31.908,-71.322
M 4.9 Oaxaca,2012 04 02,16.323,-98.535
M 4.9 Near East Coast Of Honshu,2012 04 02,38.871,142.099
M 4.9 Near East Coast Of Honshu,2012 04 03,40.329,142.373
M 4.9 Central Mid-atlantic Ridge,2012 04 04,7.414,-34.586
M 4.9 Luzon,2012 04 04,14.065,120.676
M 4.9 Samar,2012 04 05,11.331,125.493
M 4.9 Northern Sumatra,2012 04 06,2.005,97.879
M 4.9 Off Coast Of Araucania,2012 04 06,-38.226,-75.019
M 4.9 Offshore Chiapas,2012 04 06,14.721,-93.284
M 4.9 Southern Mid-atlantic Ridge,2012 04 06,-22.75,-12.764
M 4.9 North Of Ascension Island,2012 04 10,-1.766,-16.447
M 4.9 Solomon Islands,2012 04 10,-7.046,155.073
M 4.9 Southern Mid-atlantic Ridge,2012 04 11,-16.877,-14.397
M 4.9 Off W Coast Of Northern Sumatra,2012 04 11,1.977,93.337
M 4.9 Off W Coast Of Northern Sumatra,2012 04 11,1.418,92.145
M 4.9 North Indian Ocean,2012 04 11,1.142,91.902
M 4.9 North Indian Ocean,2012 04 11,0.564,91.882
M 4.9 North Indian Ocean,2012 04 11,1.627,91.786
M 4.9 Off W Coast Of Northern Sumatra,2012 04 11,2.533,90.201
M 4.9 North Indian Ocean,2012 04 11,1.355,91.541
M 4.9 Southern Mid-atlantic Ridge,2012 04 11,-45.157,-14.888
M 4.9 North Indian Ocean,2012 04 11,0.088,91.917
M 4.9 South Of Java,2012 04 11,-10.559,113.731
M 4.9 Off W Coast Of Northern Sumatra,2012 04 11,2.668,90.249
M 4.9 North Indian Ocean,2012 04 11,3.355,89.848
M 4.9 Off W Coast Of Northern Sumatra,2012 04 11,2.2,92.612
M 4.9 Near East Coast Of Honshu,2012 04 11,39.503,142.075
M 4.9 North Indian Ocean,2012 04 11,1.843,90.928
M 4.9 Off W Coast Of Northern Sumatra,2012 04 11,2.534,90.195
M 4.9 North Indian Ocean,2012 04 12,1.333,91.555
M 4.9 North Indian Ocean,2012 04 12,1.152,91.972
M 4.9 Off W Coast Of Northern Sumatra,2012 04 12,2.338,91.866
M 4.9 Gulf Of California,2012 04 12,28.723,-113.146
M 4.9 Gulf Of California,2012 04 12,28.714,-113.07
M 4.9 Southern Sumatra,2012 04 12,-5.899,103.429
M 4.9 Java,2012 04 12,-7.598,107.114
M 4.9 Off W Coast Of Northern Sumatra,2012 04 12,0.897,92.766
M 4.9 Near East Coast Of Honshu,2012 04 13,36.966,141.311
M 4.9 North Indian Ocean,2012 04 13,3.398,89.943
M 4.9 Near East Coast Of Honshu,2012 04 14,36.814,141.072
M 4.9 Vanuatu,2012 04 14,-14.251,166.645
M 4.9 Western Sichuan,2012 04 14,29.318,100.088
M 4.9 Southeast Of Ryukyu Islands,2012 04 15,24.986,127.053
M 4.9 North Indian Ocean,2012 04 15,1.118,91.804
M 4.9 North Indian Ocean,2012 04 15,1.882,90.896
M 4.9 Vanuatu,2012 04 16,-18.961,169.057
M 4.9 Mid-indian Ridge,2012 04 17,-20.308,67.939
M 4.9 Valparaiso,2012 04 17,-32.553,-71.366
M 4.9 Off W Coast Of Northern Sumatra,2012 04 17,3.747,92.7
M 4.9 Solomon Islands,2012 04 18,-7.443,156.818
M 4.9 Volcano Islands,2012 04 19,25.513,142.662
M 4.9 Central Peru,2012 04 19,-14.949,-71.721
M 4.9 Iran-iraq Border Region,2012 04 20,32.465,47.065
M 4.9 Iran-iraq Border Region,2012 04 21,32.422,47.091
M 4.9 Kermadec Islands Region,2012 04 21,-29.664,-176.207
M 4.9 South Of Kermadec Islands,2012 04 22,-32.844,179.867
M 4.9 South Of Kermadec Islands,2012 04 24,-32.704,-178.561
M 4.9 Solomon Islands,2012 04 24,-7.152,155.056
M 4.9 Fiji Region,2012 04 24,-17.727,-178.653
M 4.9 Off Coast Of Aisen,2012 04 25,-44.721,-79.388
M 4.9 Samar,2012 04 25,11.97,125.624
M 4.9 Fiji Region,2012 04 25,-20.314,-177.713
M 4.9 Tonga Region,2012 04 26,-23.814,-175.994
M 4.9 Off East Coast Of Honshu,2012 04 27,39.875,143.029
M 4.9 Vancouver Island,2012 04 27,50.494,-130.064
M 4.9 South Of Tonga,2012 04 27,-24.219,-175.904
M 4.9 New Britain Region,2012 04 27,-5.345,152.087
M 4.9 Prince Edward Islands Region,2012 04 27,-41.09,43.47
M 4.9 New Britain Region,2012 04 28,-5.298,152.063
M 4.9 Off W Coast Of Northern Sumatra,2012 04 29,1.911,93.73
M 4.9 Volcano Islands,2012 04 29,25.534,142.653
M 4.9 Tonga,2012 04 30,-20.958,-175.734
M 4.9 Tonga Region,2012 04 30,-23.89,-175.856
M 4.9 South Of Fiji Islands,2012 05 01,-26.826,-177.174
M 4.9 South Of Tonga,2012 05 01,-24.881,-175.901
M 4.9 Near The Coast Of Western Turkey,2012 05 01,38.657,26.655
M 4.9 Kermadec Islands Region,2012 05 01,-31.248,-178.073
M 4.9 New Britain Region,2012 05 02,-5.404,152.023
M 4.9 Nicobar Islands,2012 05 02,8.88,93.821
M 4.9 South Of Fiji Islands,2012 05 02,-24.195,-176.176
M 4.9 Andaman Islands,2012 05 03,10.1,93.101
M 4.9 Nicobar Islands,2012 05 03,8.929,93.903
M 4.9 Off W Coast Of Northern Sumatra,2012 05 03,2.637,94.47
M 4.9 South Of Fiji Islands,2012 05 04,-24.691,-177.098
M 4.9 Southeast Of Easter Island,2012 05 05,-41.217,-91.177
M 4.9 North Indian Ocean,2012 05 05,4.812,87.907
M 4.9 Northern Mid-atlantic Ridge,2012 05 06,12.704,-44.528
M 4.9 Revilla Gigedo Islands Region,2012 05 07,19.666,-109.303
M 4.9 Philippine Islands Region,2012 05 08,8.091,127.135
M 4.9 Minahasa,2012 05 10,0.197,122.326
M 4.9 Kuril Islands,2012 05 11,45.686,151.599
M 4.9 Tonga Region,2012 05 12,-23.473,-175.749
M 4.9 Off W Coast Of Northern Sumatra,2012 05 13,3.768,92.712
M 4.9 Macquarie Island Region,2012 05 13,-58.521,157.891
M 4.9 Southern Iran,2012 05 13,27.086,53.923
M 4.9 Seram,2012 05 13,-3.777,128.792
M 4.9 Kyushu,2012 05 14,31.77,131.52
M 4.9 Near Coast Of Northern Peru,2012 05 15,-8.668,-79.759
M 4.9 Off W Coast Of Northern Sumatra,2012 05 15,4.52,93.755
